stop_id,stop_name,stop_latitude,stop_longitude,settlement,county,3551_1,3551_10,3551_11,3551_12,3551_13,3551_14,3551_15,3551_16,3551_17,3551_18,3551_19,3551_2,3551_20,3551_21,3551_22,3551_23,3551_24,3551_25,3551_26,3551_27,3551_28,3551_29,3551_3,3551_30,3551_31,3551_32,3551_33,3551_34,3551_35,3551_36,3551_37,3551_38,3551_39,3551_4,3551_40,3551_41,3551_42,3551_43,3551_44,3551_45,3551_5,3551_6,3551_7,3551_8,3551_9
846000192,Galway Cathedral,53.27527019,-9.058258628,Galway city and suburbs,County_Galway,09:00:00,0,0,0,0,0,0,0,0,0,0,0,0,0,0,0,0,0,0,0,0,0,0,0,0,0,0,0,0,0,0,0,0,0,0,0,0,0,0,0,0,0,0,0,0
847000118,Level Crossing,53.51396854,-8.856816613,Tuam,County_Galway,09:25:00,0,0,0,0,0,0,0,0,0,0,0,0,0,0,0,0,0,0,0,0,0,0,0,0,0,0,0,0,0,0,0,0,0,0,0,0,0,0,0,0,0,0,0,0
849000355,The Square,53.71981748,-8.998796407,Claremorris,County_Mayo,09:50:00,0,0,0,0,0,0,0,0,0,0,0,0,0,0,0,0,0,0,0,0,0,0,0,0,0,0,0,0,0,0,0,0,0,0,0,0,0,0,0,0,0,0,0,0
849000298,Lennons Cafe,53.79548976,-8.918462017,Knock,County_Mayo,10:00:00,0,0,0,0,0,0,0,0,0,0,0,0,0,0,0,0,0,0,0,0,0,0,0,0,0,0,0,0,0,0,0,0,0,0,0,0,0,0,0,0,0,0,0,0
849000073,Sligo Road,53.96497101,-8.795493907,Charlestown-Bellahy,County_Mayo,10:20:00,0,0,0,0,0,0,0,0,0,0,0,0,0,0,0,0,0,0,0,0,0,0,0,0,0,0,0,0,0,0,0,0,0,0,0,0,0,0,0,0,0,0,0,0
851000082,Circular Road,54.05228823,-8.73501987,Tubbercurry,County_Sligo,10:30:00,0,0,0,0,0,0,0,0,0,0,0,0,0,0,0,0,0,0,0,0,0,0,0,0,0,0,0,0,0,0,0,0,0,0,0,0,0,0,0,0,0,0,0,0
8510PB002825,Ballinacarrow,54.13407301,-8.560833001,Ballinacarrow,County_Sligo,10:40:00,0,0,0,0,0,0,0,0,0,0,0,0,0,0,0,0,0,0,0,0,0,0,0,0,0,0,0,0,0,0,0,0,0,0,0,0,0,0,0,0,0,0,0,0
851000016,Hawthorn Court,54.18198753,-8.48591071,Collooney,County_Sligo,10:45:00,0,0,0,0,0,0,0,0,0,0,0,0,0,0,0,0,0,0,0,0,0,0,0,0,0,0,0,0,0,0,0,0,0,0,0,0,0,0,0,0,0,0,0,0
851000001,Markievicz Road,54.27279054,-8.473989627,Sligo,County_Sligo,11:15:00,0,0,0,0,0,0,0,0,0,0,0,0,0,0,0,0,0,0,0,0,0,0,0,0,0,0,0,0,0,0,0,0,0,0,0,0,0,0,0,0,0,0,0,0
851000008,Grange,54.393146,-8.523263,Grange,County_Sligo,11:25:00,0,0,0,0,0,0,0,0,0,0,0,0,0,0,0,0,0,0,0,0,0,0,0,0,0,0,0,0,0,0,0,0,0,0,0,0,0,0,0,0,0,0,0,0
853000100,Bundoran Centre,54.47789538,-8.280247146,Bundoran,County_Donegal,11:40:00,0,0,0,0,0,0,0,0,0,0,0,0,0,0,0,0,0,0,0,0,0,0,0,0,0,0,0,0,0,0,0,0,0,0,0,0,0,0,0,0,0,0,0,0
853000115,Ballyshannon,54.500992,-8.189952,Ballyshannon,County_Donegal,11:45:00,0,0,0,0,0,0,0,0,0,0,0,0,0,0,0,0,0,0,0,0,0,0,0,0,0,0,0,0,0,0,0,0,0,0,0,0,0,0,0,0,0,0,0,0
853000377,Opposite Garda Station,54.65267752,-8.111336492,Donegal,County_Donegal,12:05:00,0,0,0,0,0,0,0,0,0,0,0,0,0,0,0,0,0,0,0,0,0,0,0,0,0,0,0,0,0,0,0,0,0,0,0,0,0,0,0,0,0,0,0,0
853000076,Ballybofey,54.800148,-7.778756,Ballybofey-Stranorlar,County_Donegal,12:30:00,0,0,0,0,0,0,0,0,0,0,0,0,0,0,0,0,0,0,0,0,0,0,0,0,0,0,0,0,0,0,0,0,0,0,0,0,0,0,0,0,0,0,0,0
8530LL10831,Letterkenny Bus Station,54.95414234,-7.728641489,Letterkenny,County_Donegal,12:50:00,0,0,0,0,0,0,0,0,0,0,0,0,0,0,0,0,0,0,0,0,0,0,0,0,0,0,0,0,0,0,0,0,0,0,0,0,0,0,0,0,0,0,0,0
853000087,Kilmacrennan PO,55.02965903,-7.778463717,Kilmacrennan,County_Donegal,13:00:00,0,0,0,0,0,0,0,0,0,0,0,0,0,0,0,0,0,0,0,0,0,0,0,0,0,0,0,0,0,0,0,0,0,0,0,0,0,0,0,0,0,0,0,0
853000083,Creeslough,55.12118559,-7.905407798,Creeslough,County_Donegal,13:15:00,0,0,0,0,0,0,0,0,0,0,0,0,0,0,0,0,0,0,0,0,0,0,0,0,0,0,0,0,0,0,0,0,0,0,0,0,0,0,0,0,0,0,0,0
853000080,Dunfanaghy,55.18325504,-7.971691299,Dunfanaghy,County_Donegal,13:25:00,0,0,0,0,0,0,0,0,0,0,0,0,0,0,0,0,0,0,0,0,0,0,0,0,0,0,0,0,0,0,0,0,0,0,0,0,0,0,0,0,0,0,0,0
853000378,Public Phone Box,55.13638738,-8.105041321,An Fál Carrach,County_Donegal,13:40:00,0,0,0,0,0,0,0,0,0,0,0,0,0,0,0,0,0,0,0,0,0,0,0,0,0,0,0,0,0,0,0,0,0,0,0,0,0,0,0,0,0,0,0,0
8530PB000300,Gortahork,55.12152693,-8.133126276,Gort An Choirce,County_Donegal,13:45:00,0,0,0,0,0,0,0,0,0,0,0,0,0,0,0,0,0,0,0,0,0,0,0,0,0,0,0,0,0,0,0,0,0,0,0,0,0,0,0,0,0,0,0,0
853000379,Mollys Supermarket,55.07877753,-8.289631079,An Bun Beag-Doirí Beaga,County_Donegal,14:05:00,0,0,0,0,0,0,0,0,0,0,0,0,0,0,0,0,0,0,0,0,0,0,0,0,0,0,0,0,0,0,0,0,0,0,0,0,0,0,0,0,0,0,0,0
853000380,Bunbeg Crossroads,55.061177,-8.300805561,An Bun Beag-Doirí Beaga,County_Donegal,14:07:00,0,0,0,0,0,0,0,0,0,0,0,0,0,0,0,0,0,0,0,0,0,0,0,0,0,0,0,0,0,0,0,0,0,0,0,0,0,0,0,0,0,0,0,0
853000116,Crolly,55.02381756,-8.26296189,N56,County_Donegal,14:15:00,0,0,0,0,0,0,0,0,0,0,0,0,0,0,0,0,0,0,0,0,0,0,0,0,0,0,0,0,0,0,0,0,0,0,0,0,0,0,0,0,0,0,0,0
846000192,Galway Cathedral,53.27527019,-9.058258628,Galway city and suburbs,County_Galway,09:00:00,0,0,0,0,0,0,0,0,0,0,0,0,0,0,0,0,0,0,0,0,0,0,0,0,0,0,0,0,0,0,0,0,0,0,0,0,0,0,0,0,0,0,0,0
847000118,Level Crossing,53.51396854,-8.856816613,Tuam,County_Galway,09:25:00,0,0,0,0,0,0,0,0,0,0,0,0,0,0,0,0,0,0,0,0,0,0,0,0,0,0,0,0,0,0,0,0,0,0,0,0,0,0,0,0,0,0,0,0
849000355,The Square,53.71981748,-8.998796407,Claremorris,County_Mayo,09:50:00,0,0,0,0,0,0,0,0,0,0,0,0,0,0,0,0,0,0,0,0,0,0,0,0,0,0,0,0,0,0,0,0,0,0,0,0,0,0,0,0,0,0,0,0
849000298,Lennons Cafe,53.79548976,-8.918462017,Knock,County_Mayo,10:00:00,0,0,0,0,0,0,0,0,0,0,0,0,0,0,0,0,0,0,0,0,0,0,0,0,0,0,0,0,0,0,0,0,0,0,0,0,0,0,0,0,0,0,0,0
849000073,Sligo Road,53.96497101,-8.795493907,Charlestown-Bellahy,County_Mayo,10:20:00,0,0,0,0,0,0,0,0,0,0,0,0,0,0,0,0,0,0,0,0,0,0,0,0,0,0,0,0,0,0,0,0,0,0,0,0,0,0,0,0,0,0,0,0
851000082,Circular Road,54.05228823,-8.73501987,Tubbercurry,County_Sligo,10:30:00,0,0,0,0,0,0,0,0,0,0,0,0,0,0,0,0,0,0,0,0,0,0,0,0,0,0,0,0,0,0,0,0,0,0,0,0,0,0,0,0,0,0,0,0
8510PB002825,Ballinacarrow,54.13407301,-8.560833001,Ballinacarrow,County_Sligo,10:40:00,0,0,0,0,0,0,0,0,0,0,0,0,0,0,0,0,0,0,0,0,0,0,0,0,0,0,0,0,0,0,0,0,0,0,0,0,0,0,0,0,0,0,0,0
851000016,Hawthorn Court,54.18198753,-8.48591071,Collooney,County_Sligo,10:45:00,0,0,0,0,0,0,0,0,0,0,0,0,0,0,0,0,0,0,0,0,0,0,0,0,0,0,0,0,0,0,0,0,0,0,0,0,0,0,0,0,0,0,0,0
851000001,Markievicz Road,54.27279054,-8.473989627,Sligo,County_Sligo,11:15:00,0,0,0,0,0,0,0,0,0,0,0,0,0,0,0,0,0,0,0,0,0,0,0,0,0,0,0,0,0,0,0,0,0,0,0,0,0,0,0,0,0,0,0,0
851000008,Grange,54.393146,-8.523263,Grange,County_Sligo,11:25:00,0,0,0,0,0,0,0,0,0,0,0,0,0,0,0,0,0,0,0,0,0,0,0,0,0,0,0,0,0,0,0,0,0,0,0,0,0,0,0,0,0,0,0,0
853000100,Bundoran Centre,54.47789538,-8.280247146,Bundoran,County_Donegal,11:40:00,0,0,0,0,0,0,0,0,0,0,0,0,0,0,0,0,0,0,0,0,0,0,0,0,0,0,0,0,0,0,0,0,0,0,0,0,0,0,0,0,0,0,0,0
853000115,Ballyshannon,54.500992,-8.189952,Ballyshannon,County_Donegal,11:45:00,0,0,0,0,0,0,0,0,0,0,0,0,0,0,0,0,0,0,0,0,0,0,0,0,0,0,0,0,0,0,0,0,0,0,0,0,0,0,0,0,0,0,0,0
853000377,Opposite Garda Station,54.65267752,-8.111336492,Donegal,County_Donegal,12:05:00,0,0,0,0,0,0,0,0,0,0,0,0,0,0,0,0,0,0,0,0,0,0,0,0,0,0,0,0,0,0,0,0,0,0,0,0,0,0,0,0,0,0,0,0
853000076,Ballybofey,54.800148,-7.778756,Ballybofey-Stranorlar,County_Donegal,12:30:00,0,0,0,0,0,0,0,0,0,0,0,0,0,0,0,0,0,0,0,0,0,0,0,0,0,0,0,0,0,0,0,0,0,0,0,0,0,0,0,0,0,0,0,0
8530LL10831,Letterkenny Bus Station,54.95414234,-7.728641489,Letterkenny,County_Donegal,12:50:00,0,0,0,0,0,0,0,0,0,0,0,0,0,0,0,0,0,0,0,0,0,0,0,0,0,0,0,0,0,0,0,0,0,0,0,0,0,0,0,0,0,0,0,0
853000087,Kilmacrennan PO,55.02965903,-7.778463717,Kilmacrennan,County_Donegal,13:00:00,0,0,0,0,0,0,0,0,0,0,0,0,0,0,0,0,0,0,0,0,0,0,0,0,0,0,0,0,0,0,0,0,0,0,0,0,0,0,0,0,0,0,0,0
853000083,Creeslough,55.12118559,-7.905407798,Creeslough,County_Donegal,13:15:00,0,0,0,0,0,0,0,0,0,0,0,0,0,0,0,0,0,0,0,0,0,0,0,0,0,0,0,0,0,0,0,0,0,0,0,0,0,0,0,0,0,0,0,0
853000080,Dunfanaghy,55.18325504,-7.971691299,Dunfanaghy,County_Donegal,13:25:00,0,0,0,0,0,0,0,0,0,0,0,0,0,0,0,0,0,0,0,0,0,0,0,0,0,0,0,0,0,0,0,0,0,0,0,0,0,0,0,0,0,0,0,0
853000378,Public Phone Box,55.13638738,-8.105041321,An Fál Carrach,County_Donegal,13:40:00,0,0,0,0,0,0,0,0,0,0,0,0,0,0,0,0,0,0,0,0,0,0,0,0,0,0,0,0,0,0,0,0,0,0,0,0,0,0,0,0,0,0,0,0
8530PB000300,Gortahork,55.12152693,-8.133126276,Gort An Choirce,County_Donegal,13:45:00,0,0,0,0,0,0,0,0,0,0,0,0,0,0,0,0,0,0,0,0,0,0,0,0,0,0,0,0,0,0,0,0,0,0,0,0,0,0,0,0,0,0,0,0
853000379,Mollys Supermarket,55.07877753,-8.289631079,An Bun Beag-Doirí Beaga,County_Donegal,14:05:00,0,0,0,0,0,0,0,0,0,0,0,0,0,0,0,0,0,0,0,0,0,0,0,0,0,0,0,0,0,0,0,0,0,0,0,0,0,0,0,0,0,0,0,0
853000380,Bunbeg Crossroads,55.061177,-8.300805561,An Bun Beag-Doirí Beaga,County_Donegal,14:07:00,0,0,0,0,0,0,0,0,0,0,0,0,0,0,0,0,0,0,0,0,0,0,0,0,0,0,0,0,0,0,0,0,0,0,0,0,0,0,0,0,0,0,0,0
853000116,Crolly,55.02381756,-8.26296189,N56,County_Donegal,14:15:00,0,0,0,0,0,0,0,0,0,0,0,0,0,0,0,0,0,0,0,0,0,0,0,0,0,0,0,0,0,0,0,0,0,0,0,0,0,0,0,0,0,0,0,0
846000192,Galway Cathedral,53.27527019,-9.058258628,Galway city and suburbs,County_Galway,0,16:00:00,0,0,0,0,0,0,0,0,0,0,0,0,0,0,0,0,0,0,0,0,0,0,0,0,0,0,0,0,0,0,0,0,0,0,0,0,0,0,0,0,0,0,0
847000078,West Wing Restaurant,53.50696306,-8.880946428,West Wing Restaurant,County_Galway,0,16:25:00,0,0,0,0,0,0,0,0,0,0,0,0,0,0,0,0,0,0,0,0,0,0,0,0,0,0,0,0,0,0,0,0,0,0,0,0,0,0,0,0,0,0,0
847000118,Level Crossing,53.51396854,-8.856816613,Tuam,County_Galway,0,16:50:00,0,0,0,0,0,0,0,0,0,0,0,0,0,0,0,0,0,0,0,0,0,0,0,0,0,0,0,0,0,0,0,0,0,0,0,0,0,0,0,0,0,0,0
849000355,The Square,53.71981748,-8.998796407,Claremorris,County_Mayo,0,17:00:00,0,0,0,0,0,0,0,0,0,0,0,0,0,0,0,0,0,0,0,0,0,0,0,0,0,0,0,0,0,0,0,0,0,0,0,0,0,0,0,0,0,0,0
849000298,Lennons Cafe,53.79548976,-8.918462017,Knock,County_Mayo,0,17:20:00,0,0,0,0,0,0,0,0,0,0,0,0,0,0,0,0,0,0,0,0,0,0,0,0,0,0,0,0,0,0,0,0,0,0,0,0,0,0,0,0,0,0,0
849000073,Sligo Road,53.96497101,-8.795493907,Charlestown-Bellahy,County_Mayo,0,17:30:00,0,0,0,0,0,0,0,0,0,0,0,0,0,0,0,0,0,0,0,0,0,0,0,0,0,0,0,0,0,0,0,0,0,0,0,0,0,0,0,0,0,0,0
851000082,Circular Road,54.05228823,-8.73501987,Tubbercurry,County_Sligo,0,17:40:00,0,0,0,0,0,0,0,0,0,0,0,0,0,0,0,0,0,0,0,0,0,0,0,0,0,0,0,0,0,0,0,0,0,0,0,0,0,0,0,0,0,0,0
8510PB002825,Ballinacarrow,54.13407301,-8.560833001,Ballinacarrow,County_Sligo,0,17:45:00,0,0,0,0,0,0,0,0,0,0,0,0,0,0,0,0,0,0,0,0,0,0,0,0,0,0,0,0,0,0,0,0,0,0,0,0,0,0,0,0,0,0,0
851000016,Hawthorn Court,54.18198753,-8.48591071,Collooney,County_Sligo,0,18:05:00,0,0,0,0,0,0,0,0,0,0,0,0,0,0,0,0,0,0,0,0,0,0,0,0,0,0,0,0,0,0,0,0,0,0,0,0,0,0,0,0,0,0,0
851000001,Markievicz Road,54.27279054,-8.473989627,Sligo,County_Sligo,0,18:15:00,0,0,0,0,0,0,0,0,0,0,0,0,0,0,0,0,0,0,0,0,0,0,0,0,0,0,0,0,0,0,0,0,0,0,0,0,0,0,0,0,0,0,0
851000008,Grange,54.393146,-8.523263,Grange,County_Sligo,0,18:25:00,0,0,0,0,0,0,0,0,0,0,0,0,0,0,0,0,0,0,0,0,0,0,0,0,0,0,0,0,0,0,0,0,0,0,0,0,0,0,0,0,0,0,0
853000100,Bundoran Centre,54.47789538,-8.280247146,Bundoran,County_Donegal,0,18:40:00,0,0,0,0,0,0,0,0,0,0,0,0,0,0,0,0,0,0,0,0,0,0,0,0,0,0,0,0,0,0,0,0,0,0,0,0,0,0,0,0,0,0,0
853000115,Ballyshannon,54.500992,-8.189952,Ballyshannon,County_Donegal,0,18:45:00,0,0,0,0,0,0,0,0,0,0,0,0,0,0,0,0,0,0,0,0,0,0,0,0,0,0,0,0,0,0,0,0,0,0,0,0,0,0,0,0,0,0,0
853000377,Opposite Garda Station,54.65267752,-8.111336492,Donegal,County_Donegal,0,19:05:00,0,0,0,0,0,0,0,0,0,0,0,0,0,0,0,0,0,0,0,0,0,0,0,0,0,0,0,0,0,0,0,0,0,0,0,0,0,0,0,0,0,0,0
853000076,Ballybofey,54.800148,-7.778756,Ballybofey-Stranorlar,County_Donegal,0,19:30:00,0,0,0,0,0,0,0,0,0,0,0,0,0,0,0,0,0,0,0,0,0,0,0,0,0,0,0,0,0,0,0,0,0,0,0,0,0,0,0,0,0,0,0
8530LL10831,Letterkenny Bus Station,54.95414234,-7.728641489,Letterkenny,County_Donegal,0,19:50:00,0,0,0,0,0,0,0,0,0,0,0,0,0,0,0,0,0,0,0,0,0,0,0,0,0,0,0,0,0,0,0,0,0,0,0,0,0,0,0,0,0,0,0
853000087,Kilmacrennan PO,55.02965903,-7.778463717,Kilmacrennan,County_Donegal,0,20:00:00,0,0,0,0,0,0,0,0,0,0,0,0,0,0,0,0,0,0,0,0,0,0,0,0,0,0,0,0,0,0,0,0,0,0,0,0,0,0,0,0,0,0,0
853000083,Creeslough,55.12118559,-7.905407798,Creeslough,County_Donegal,0,20:15:00,0,0,0,0,0,0,0,0,0,0,0,0,0,0,0,0,0,0,0,0,0,0,0,0,0,0,0,0,0,0,0,0,0,0,0,0,0,0,0,0,0,0,0
853000080,Dunfanaghy,55.18325504,-7.971691299,Dunfanaghy,County_Donegal,0,20:25:00,0,0,0,0,0,0,0,0,0,0,0,0,0,0,0,0,0,0,0,0,0,0,0,0,0,0,0,0,0,0,0,0,0,0,0,0,0,0,0,0,0,0,0
853000378,Public Phone Box,55.13638738,-8.105041321,An Fál Carrach,County_Donegal,0,20:40:00,0,0,0,0,0,0,0,0,0,0,0,0,0,0,0,0,0,0,0,0,0,0,0,0,0,0,0,0,0,0,0,0,0,0,0,0,0,0,0,0,0,0,0
8530PB000300,Gortahork,55.12152693,-8.133126276,Gort An Choirce,County_Donegal,0,20:45:00,0,0,0,0,0,0,0,0,0,0,0,0,0,0,0,0,0,0,0,0,0,0,0,0,0,0,0,0,0,0,0,0,0,0,0,0,0,0,0,0,0,0,0
853000379,Mollys Supermarket,55.07877753,-8.289631079,An Bun Beag-Doirí Beaga,County_Donegal,0,21:05:00,0,0,0,0,0,0,0,0,0,0,0,0,0,0,0,0,0,0,0,0,0,0,0,0,0,0,0,0,0,0,0,0,0,0,0,0,0,0,0,0,0,0,0
853000380,Bunbeg Crossroads,55.061177,-8.300805561,An Bun Beag-Doirí Beaga,County_Donegal,0,21:07:00,0,0,0,0,0,0,0,0,0,0,0,0,0,0,0,0,0,0,0,0,0,0,0,0,0,0,0,0,0,0,0,0,0,0,0,0,0,0,0,0,0,0,0
853000116,Crolly,55.02381756,-8.26296189,N56,County_Donegal,0,21:15:00,0,0,0,0,0,0,0,0,0,0,0,0,0,0,0,0,0,0,0,0,0,0,0,0,0,0,0,0,0,0,0,0,0,0,0,0,0,0,0,0,0,0,0
846000192,Galway Cathedral,53.27527019,-9.058258628,Galway city and suburbs,County_Galway,09:00:00,0,0,0,0,0,0,0,0,0,0,0,0,0,0,0,0,0,0,0,0,0,0,0,0,0,0,0,0,0,0,0,0,0,0,0,0,0,0,0,0,0,0,0,0
847000118,Level Crossing,53.51396854,-8.856816613,Tuam,County_Galway,09:25:00,0,0,0,0,0,0,0,0,0,0,0,0,0,0,0,0,0,0,0,0,0,0,0,0,0,0,0,0,0,0,0,0,0,0,0,0,0,0,0,0,0,0,0,0
849000355,The Square,53.71981748,-8.998796407,Claremorris,County_Mayo,09:50:00,0,0,0,0,0,0,0,0,0,0,0,0,0,0,0,0,0,0,0,0,0,0,0,0,0,0,0,0,0,0,0,0,0,0,0,0,0,0,0,0,0,0,0,0
849000298,Lennons Cafe,53.79548976,-8.918462017,Knock,County_Mayo,10:00:00,0,0,0,0,0,0,0,0,0,0,0,0,0,0,0,0,0,0,0,0,0,0,0,0,0,0,0,0,0,0,0,0,0,0,0,0,0,0,0,0,0,0,0,0
849000073,Sligo Road,53.96497101,-8.795493907,Charlestown-Bellahy,County_Mayo,10:20:00,0,0,0,0,0,0,0,0,0,0,0,0,0,0,0,0,0,0,0,0,0,0,0,0,0,0,0,0,0,0,0,0,0,0,0,0,0,0,0,0,0,0,0,0
851000082,Circular Road,54.05228823,-8.73501987,Tubbercurry,County_Sligo,10:30:00,0,0,0,0,0,0,0,0,0,0,0,0,0,0,0,0,0,0,0,0,0,0,0,0,0,0,0,0,0,0,0,0,0,0,0,0,0,0,0,0,0,0,0,0
8510PB002825,Ballinacarrow,54.13407301,-8.560833001,Ballinacarrow,County_Sligo,10:40:00,0,0,0,0,0,0,0,0,0,0,0,0,0,0,0,0,0,0,0,0,0,0,0,0,0,0,0,0,0,0,0,0,0,0,0,0,0,0,0,0,0,0,0,0
851000016,Hawthorn Court,54.18198753,-8.48591071,Collooney,County_Sligo,10:45:00,0,0,0,0,0,0,0,0,0,0,0,0,0,0,0,0,0,0,0,0,0,0,0,0,0,0,0,0,0,0,0,0,0,0,0,0,0,0,0,0,0,0,0,0
851000001,Markievicz Road,54.27279054,-8.473989627,Sligo,County_Sligo,11:15:00,0,0,0,0,0,0,0,0,0,0,0,0,0,0,0,0,0,0,0,0,0,0,0,0,0,0,0,0,0,0,0,0,0,0,0,0,0,0,0,0,0,0,0,0
851000008,Grange,54.393146,-8.523263,Grange,County_Sligo,11:25:00,0,0,0,0,0,0,0,0,0,0,0,0,0,0,0,0,0,0,0,0,0,0,0,0,0,0,0,0,0,0,0,0,0,0,0,0,0,0,0,0,0,0,0,0
853000100,Bundoran Centre,54.47789538,-8.280247146,Bundoran,County_Donegal,11:40:00,0,0,0,0,0,0,0,0,0,0,0,0,0,0,0,0,0,0,0,0,0,0,0,0,0,0,0,0,0,0,0,0,0,0,0,0,0,0,0,0,0,0,0,0
853000115,Ballyshannon,54.500992,-8.189952,Ballyshannon,County_Donegal,11:45:00,0,0,0,0,0,0,0,0,0,0,0,0,0,0,0,0,0,0,0,0,0,0,0,0,0,0,0,0,0,0,0,0,0,0,0,0,0,0,0,0,0,0,0,0
853000377,Opposite Garda Station,54.65267752,-8.111336492,Donegal,County_Donegal,12:05:00,0,0,0,0,0,0,0,0,0,0,0,0,0,0,0,0,0,0,0,0,0,0,0,0,0,0,0,0,0,0,0,0,0,0,0,0,0,0,0,0,0,0,0,0
853000076,Ballybofey,54.800148,-7.778756,Ballybofey-Stranorlar,County_Donegal,12:30:00,0,0,0,0,0,0,0,0,0,0,0,0,0,0,0,0,0,0,0,0,0,0,0,0,0,0,0,0,0,0,0,0,0,0,0,0,0,0,0,0,0,0,0,0
8530LL10831,Letterkenny Bus Station,54.95414234,-7.728641489,Letterkenny,County_Donegal,12:50:00,0,0,0,0,0,0,0,0,0,0,0,0,0,0,0,0,0,0,0,0,0,0,0,0,0,0,0,0,0,0,0,0,0,0,0,0,0,0,0,0,0,0,0,0
853000087,Kilmacrennan PO,55.02965903,-7.778463717,Kilmacrennan,County_Donegal,13:00:00,0,0,0,0,0,0,0,0,0,0,0,0,0,0,0,0,0,0,0,0,0,0,0,0,0,0,0,0,0,0,0,0,0,0,0,0,0,0,0,0,0,0,0,0
853000083,Creeslough,55.12118559,-7.905407798,Creeslough,County_Donegal,13:15:00,0,0,0,0,0,0,0,0,0,0,0,0,0,0,0,0,0,0,0,0,0,0,0,0,0,0,0,0,0,0,0,0,0,0,0,0,0,0,0,0,0,0,0,0
853000080,Dunfanaghy,55.18325504,-7.971691299,Dunfanaghy,County_Donegal,13:25:00,0,0,0,0,0,0,0,0,0,0,0,0,0,0,0,0,0,0,0,0,0,0,0,0,0,0,0,0,0,0,0,0,0,0,0,0,0,0,0,0,0,0,0,0
853000378,Public Phone Box,55.13638738,-8.105041321,An Fál Carrach,County_Donegal,13:40:00,0,0,0,0,0,0,0,0,0,0,0,0,0,0,0,0,0,0,0,0,0,0,0,0,0,0,0,0,0,0,0,0,0,0,0,0,0,0,0,0,0,0,0,0
8530PB000300,Gortahork,55.12152693,-8.133126276,Gort An Choirce,County_Donegal,13:45:00,0,0,0,0,0,0,0,0,0,0,0,0,0,0,0,0,0,0,0,0,0,0,0,0,0,0,0,0,0,0,0,0,0,0,0,0,0,0,0,0,0,0,0,0
853000379,Mollys Supermarket,55.07877753,-8.289631079,An Bun Beag-Doirí Beaga,County_Donegal,14:05:00,0,0,0,0,0,0,0,0,0,0,0,0,0,0,0,0,0,0,0,0,0,0,0,0,0,0,0,0,0,0,0,0,0,0,0,0,0,0,0,0,0,0,0,0
853000380,Bunbeg Crossroads,55.061177,-8.300805561,An Bun Beag-Doirí Beaga,County_Donegal,14:07:00,0,0,0,0,0,0,0,0,0,0,0,0,0,0,0,0,0,0,0,0,0,0,0,0,0,0,0,0,0,0,0,0,0,0,0,0,0,0,0,0,0,0,0,0
853000116,Crolly,55.02381756,-8.26296189,N56,County_Donegal,14:15:00,0,0,0,0,0,0,0,0,0,0,0,0,0,0,0,0,0,0,0,0,0,0,0,0,0,0,0,0,0,0,0,0,0,0,0,0,0,0,0,0,0,0,0,0
846000192,Galway Cathedral,53.27527019,-9.058258628,Galway city and suburbs,County_Galway,0,0,16:00:00,0,0,0,0,0,0,0,0,0,0,0,0,0,0,0,0,0,0,0,0,0,0,0,0,0,0,0,0,0,0,0,0,0,0,0,0,0,0,0,0,0,0
853000076,Ballybofey,54.800148,-7.778756,Ballybofey-Stranorlar,County_Donegal,0,0,19:15:00,0,0,0,0,0,0,0,0,0,0,0,0,0,0,0,0,0,0,0,0,0,0,0,0,0,0,0,0,0,0,0,0,0,0,0,0,0,0,0,0,0,0
8530LL10831,Letterkenny Bus Station,54.95414234,-7.728641489,Letterkenny,County_Donegal,0,0,19:35:00,0,0,0,0,0,0,0,0,0,0,0,0,0,0,0,0,0,0,0,0,0,0,0,0,0,0,0,0,0,0,0,0,0,0,0,0,0,0,0,0,0,0
846000192,Galway Cathedral,53.27527019,-9.058258628,Galway city and suburbs,County_Galway,09:00:00,0,0,0,0,0,0,0,0,0,0,0,0,0,0,0,0,0,0,0,0,0,0,0,0,0,0,0,0,0,0,0,0,0,0,0,0,0,0,0,0,0,0,0,0
847000118,Level Crossing,53.51396854,-8.856816613,Tuam,County_Galway,09:25:00,0,0,0,0,0,0,0,0,0,0,0,0,0,0,0,0,0,0,0,0,0,0,0,0,0,0,0,0,0,0,0,0,0,0,0,0,0,0,0,0,0,0,0,0
849000355,The Square,53.71981748,-8.998796407,Claremorris,County_Mayo,09:50:00,0,0,0,0,0,0,0,0,0,0,0,0,0,0,0,0,0,0,0,0,0,0,0,0,0,0,0,0,0,0,0,0,0,0,0,0,0,0,0,0,0,0,0,0
849000298,Lennons Cafe,53.79548976,-8.918462017,Knock,County_Mayo,10:00:00,0,0,0,0,0,0,0,0,0,0,0,0,0,0,0,0,0,0,0,0,0,0,0,0,0,0,0,0,0,0,0,0,0,0,0,0,0,0,0,0,0,0,0,0
849000073,Sligo Road,53.96497101,-8.795493907,Charlestown-Bellahy,County_Mayo,10:20:00,0,0,0,0,0,0,0,0,0,0,0,0,0,0,0,0,0,0,0,0,0,0,0,0,0,0,0,0,0,0,0,0,0,0,0,0,0,0,0,0,0,0,0,0
851000082,Circular Road,54.05228823,-8.73501987,Tubbercurry,County_Sligo,10:30:00,0,0,0,0,0,0,0,0,0,0,0,0,0,0,0,0,0,0,0,0,0,0,0,0,0,0,0,0,0,0,0,0,0,0,0,0,0,0,0,0,0,0,0,0
8510PB002825,Ballinacarrow,54.13407301,-8.560833001,Ballinacarrow,County_Sligo,10:40:00,0,0,0,0,0,0,0,0,0,0,0,0,0,0,0,0,0,0,0,0,0,0,0,0,0,0,0,0,0,0,0,0,0,0,0,0,0,0,0,0,0,0,0,0
851000016,Hawthorn Court,54.18198753,-8.48591071,Collooney,County_Sligo,10:45:00,0,0,0,0,0,0,0,0,0,0,0,0,0,0,0,0,0,0,0,0,0,0,0,0,0,0,0,0,0,0,0,0,0,0,0,0,0,0,0,0,0,0,0,0
851000001,Markievicz Road,54.27279054,-8.473989627,Sligo,County_Sligo,11:15:00,0,0,0,0,0,0,0,0,0,0,0,0,0,0,0,0,0,0,0,0,0,0,0,0,0,0,0,0,0,0,0,0,0,0,0,0,0,0,0,0,0,0,0,0
851000008,Grange,54.393146,-8.523263,Grange,County_Sligo,11:25:00,0,0,0,0,0,0,0,0,0,0,0,0,0,0,0,0,0,0,0,0,0,0,0,0,0,0,0,0,0,0,0,0,0,0,0,0,0,0,0,0,0,0,0,0
853000100,Bundoran Centre,54.47789538,-8.280247146,Bundoran,County_Donegal,11:40:00,0,0,0,0,0,0,0,0,0,0,0,0,0,0,0,0,0,0,0,0,0,0,0,0,0,0,0,0,0,0,0,0,0,0,0,0,0,0,0,0,0,0,0,0
853000115,Ballyshannon,54.500992,-8.189952,Ballyshannon,County_Donegal,11:45:00,0,0,0,0,0,0,0,0,0,0,0,0,0,0,0,0,0,0,0,0,0,0,0,0,0,0,0,0,0,0,0,0,0,0,0,0,0,0,0,0,0,0,0,0
853000377,Opposite Garda Station,54.65267752,-8.111336492,Donegal,County_Donegal,12:05:00,0,0,0,0,0,0,0,0,0,0,0,0,0,0,0,0,0,0,0,0,0,0,0,0,0,0,0,0,0,0,0,0,0,0,0,0,0,0,0,0,0,0,0,0
853000076,Ballybofey,54.800148,-7.778756,Ballybofey-Stranorlar,County_Donegal,12:30:00,0,0,0,0,0,0,0,0,0,0,0,0,0,0,0,0,0,0,0,0,0,0,0,0,0,0,0,0,0,0,0,0,0,0,0,0,0,0,0,0,0,0,0,0
8530LL10831,Letterkenny Bus Station,54.95414234,-7.728641489,Letterkenny,County_Donegal,12:50:00,0,0,0,0,0,0,0,0,0,0,0,0,0,0,0,0,0,0,0,0,0,0,0,0,0,0,0,0,0,0,0,0,0,0,0,0,0,0,0,0,0,0,0,0
853000087,Kilmacrennan PO,55.02965903,-7.778463717,Kilmacrennan,County_Donegal,13:00:00,0,0,0,0,0,0,0,0,0,0,0,0,0,0,0,0,0,0,0,0,0,0,0,0,0,0,0,0,0,0,0,0,0,0,0,0,0,0,0,0,0,0,0,0
853000083,Creeslough,55.12118559,-7.905407798,Creeslough,County_Donegal,13:15:00,0,0,0,0,0,0,0,0,0,0,0,0,0,0,0,0,0,0,0,0,0,0,0,0,0,0,0,0,0,0,0,0,0,0,0,0,0,0,0,0,0,0,0,0
853000080,Dunfanaghy,55.18325504,-7.971691299,Dunfanaghy,County_Donegal,13:25:00,0,0,0,0,0,0,0,0,0,0,0,0,0,0,0,0,0,0,0,0,0,0,0,0,0,0,0,0,0,0,0,0,0,0,0,0,0,0,0,0,0,0,0,0
853000378,Public Phone Box,55.13638738,-8.105041321,An Fál Carrach,County_Donegal,13:40:00,0,0,0,0,0,0,0,0,0,0,0,0,0,0,0,0,0,0,0,0,0,0,0,0,0,0,0,0,0,0,0,0,0,0,0,0,0,0,0,0,0,0,0,0
8530PB000300,Gortahork,55.12152693,-8.133126276,Gort An Choirce,County_Donegal,13:45:00,0,0,0,0,0,0,0,0,0,0,0,0,0,0,0,0,0,0,0,0,0,0,0,0,0,0,0,0,0,0,0,0,0,0,0,0,0,0,0,0,0,0,0,0
853000379,Mollys Supermarket,55.07877753,-8.289631079,An Bun Beag-Doirí Beaga,County_Donegal,14:05:00,0,0,0,0,0,0,0,0,0,0,0,0,0,0,0,0,0,0,0,0,0,0,0,0,0,0,0,0,0,0,0,0,0,0,0,0,0,0,0,0,0,0,0,0
853000380,Bunbeg Crossroads,55.061177,-8.300805561,An Bun Beag-Doirí Beaga,County_Donegal,14:07:00,0,0,0,0,0,0,0,0,0,0,0,0,0,0,0,0,0,0,0,0,0,0,0,0,0,0,0,0,0,0,0,0,0,0,0,0,0,0,0,0,0,0,0,0
853000116,Crolly,55.02381756,-8.26296189,N56,County_Donegal,14:15:00,0,0,0,0,0,0,0,0,0,0,0,0,0,0,0,0,0,0,0,0,0,0,0,0,0,0,0,0,0,0,0,0,0,0,0,0,0,0,0,0,0,0,0,0
8490B5530801,Knock Airport,53.91406566,-8.81263954,Knock Airport,County_Mayo,0,0,0,16:10:00,0,0,0,0,0,0,0,0,0,0,0,0,0,0,0,0,0,0,0,0,0,0,0,0,0,0,0,0,0,0,0,0,0,0,0,0,0,0,0,0,0
8490B141641,Market Square,53.96396871,-8.794865239,Charlestown-Bellahy,County_Mayo,0,0,0,16:20:00,0,0,0,0,0,0,0,0,0,0,0,0,0,0,0,0,0,0,0,0,0,0,0,0,0,0,0,0,0,0,0,0,0,0,0,0,0,0,0,0,0
8490B5530801,Knock Airport,53.91406566,-8.81263954,Knock Airport,County_Mayo,0,0,0,16:30:00,0,0,0,0,0,0,0,0,0,0,0,0,0,0,0,0,0,0,0,0,0,0,0,0,0,0,0,0,0,0,0,0,0,0,0,0,0,0,0,0,0
846000192,Galway Cathedral,53.27527019,-9.058258628,Galway city and suburbs,County_Galway,09:00:00,0,0,0,0,0,0,0,0,0,0,0,0,0,0,0,0,0,0,0,0,0,0,0,0,0,0,0,0,0,0,0,0,0,0,0,0,0,0,0,0,0,0,0,0
847000118,Level Crossing,53.51396854,-8.856816613,Tuam,County_Galway,09:25:00,0,0,0,0,0,0,0,0,0,0,0,0,0,0,0,0,0,0,0,0,0,0,0,0,0,0,0,0,0,0,0,0,0,0,0,0,0,0,0,0,0,0,0,0
849000355,The Square,53.71981748,-8.998796407,Claremorris,County_Mayo,09:50:00,0,0,0,0,0,0,0,0,0,0,0,0,0,0,0,0,0,0,0,0,0,0,0,0,0,0,0,0,0,0,0,0,0,0,0,0,0,0,0,0,0,0,0,0
849000298,Lennons Cafe,53.79548976,-8.918462017,Knock,County_Mayo,10:00:00,0,0,0,0,0,0,0,0,0,0,0,0,0,0,0,0,0,0,0,0,0,0,0,0,0,0,0,0,0,0,0,0,0,0,0,0,0,0,0,0,0,0,0,0
849000073,Sligo Road,53.96497101,-8.795493907,Charlestown-Bellahy,County_Mayo,10:20:00,0,0,0,0,0,0,0,0,0,0,0,0,0,0,0,0,0,0,0,0,0,0,0,0,0,0,0,0,0,0,0,0,0,0,0,0,0,0,0,0,0,0,0,0
851000082,Circular Road,54.05228823,-8.73501987,Tubbercurry,County_Sligo,10:30:00,0,0,0,0,0,0,0,0,0,0,0,0,0,0,0,0,0,0,0,0,0,0,0,0,0,0,0,0,0,0,0,0,0,0,0,0,0,0,0,0,0,0,0,0
8510PB002825,Ballinacarrow,54.13407301,-8.560833001,Ballinacarrow,County_Sligo,10:40:00,0,0,0,0,0,0,0,0,0,0,0,0,0,0,0,0,0,0,0,0,0,0,0,0,0,0,0,0,0,0,0,0,0,0,0,0,0,0,0,0,0,0,0,0
851000016,Hawthorn Court,54.18198753,-8.48591071,Collooney,County_Sligo,10:45:00,0,0,0,0,0,0,0,0,0,0,0,0,0,0,0,0,0,0,0,0,0,0,0,0,0,0,0,0,0,0,0,0,0,0,0,0,0,0,0,0,0,0,0,0
851000001,Markievicz Road,54.27279054,-8.473989627,Sligo,County_Sligo,11:15:00,0,0,0,0,0,0,0,0,0,0,0,0,0,0,0,0,0,0,0,0,0,0,0,0,0,0,0,0,0,0,0,0,0,0,0,0,0,0,0,0,0,0,0,0
851000008,Grange,54.393146,-8.523263,Grange,County_Sligo,11:25:00,0,0,0,0,0,0,0,0,0,0,0,0,0,0,0,0,0,0,0,0,0,0,0,0,0,0,0,0,0,0,0,0,0,0,0,0,0,0,0,0,0,0,0,0
853000100,Bundoran Centre,54.47789538,-8.280247146,Bundoran,County_Donegal,11:40:00,0,0,0,0,0,0,0,0,0,0,0,0,0,0,0,0,0,0,0,0,0,0,0,0,0,0,0,0,0,0,0,0,0,0,0,0,0,0,0,0,0,0,0,0
853000115,Ballyshannon,54.500992,-8.189952,Ballyshannon,County_Donegal,11:45:00,0,0,0,0,0,0,0,0,0,0,0,0,0,0,0,0,0,0,0,0,0,0,0,0,0,0,0,0,0,0,0,0,0,0,0,0,0,0,0,0,0,0,0,0
853000377,Opposite Garda Station,54.65267752,-8.111336492,Donegal,County_Donegal,12:05:00,0,0,0,0,0,0,0,0,0,0,0,0,0,0,0,0,0,0,0,0,0,0,0,0,0,0,0,0,0,0,0,0,0,0,0,0,0,0,0,0,0,0,0,0
853000076,Ballybofey,54.800148,-7.778756,Ballybofey-Stranorlar,County_Donegal,12:30:00,0,0,0,0,0,0,0,0,0,0,0,0,0,0,0,0,0,0,0,0,0,0,0,0,0,0,0,0,0,0,0,0,0,0,0,0,0,0,0,0,0,0,0,0
8530LL10831,Letterkenny Bus Station,54.95414234,-7.728641489,Letterkenny,County_Donegal,12:50:00,0,0,0,0,0,0,0,0,0,0,0,0,0,0,0,0,0,0,0,0,0,0,0,0,0,0,0,0,0,0,0,0,0,0,0,0,0,0,0,0,0,0,0,0
853000087,Kilmacrennan PO,55.02965903,-7.778463717,Kilmacrennan,County_Donegal,13:00:00,0,0,0,0,0,0,0,0,0,0,0,0,0,0,0,0,0,0,0,0,0,0,0,0,0,0,0,0,0,0,0,0,0,0,0,0,0,0,0,0,0,0,0,0
853000083,Creeslough,55.12118559,-7.905407798,Creeslough,County_Donegal,13:15:00,0,0,0,0,0,0,0,0,0,0,0,0,0,0,0,0,0,0,0,0,0,0,0,0,0,0,0,0,0,0,0,0,0,0,0,0,0,0,0,0,0,0,0,0
853000080,Dunfanaghy,55.18325504,-7.971691299,Dunfanaghy,County_Donegal,13:25:00,0,0,0,0,0,0,0,0,0,0,0,0,0,0,0,0,0,0,0,0,0,0,0,0,0,0,0,0,0,0,0,0,0,0,0,0,0,0,0,0,0,0,0,0
853000378,Public Phone Box,55.13638738,-8.105041321,An Fál Carrach,County_Donegal,13:40:00,0,0,0,0,0,0,0,0,0,0,0,0,0,0,0,0,0,0,0,0,0,0,0,0,0,0,0,0,0,0,0,0,0,0,0,0,0,0,0,0,0,0,0,0
8530PB000300,Gortahork,55.12152693,-8.133126276,Gort An Choirce,County_Donegal,13:45:00,0,0,0,0,0,0,0,0,0,0,0,0,0,0,0,0,0,0,0,0,0,0,0,0,0,0,0,0,0,0,0,0,0,0,0,0,0,0,0,0,0,0,0,0
853000379,Mollys Supermarket,55.07877753,-8.289631079,An Bun Beag-Doirí Beaga,County_Donegal,14:05:00,0,0,0,0,0,0,0,0,0,0,0,0,0,0,0,0,0,0,0,0,0,0,0,0,0,0,0,0,0,0,0,0,0,0,0,0,0,0,0,0,0,0,0,0
853000380,Bunbeg Crossroads,55.061177,-8.300805561,An Bun Beag-Doirí Beaga,County_Donegal,14:07:00,0,0,0,0,0,0,0,0,0,0,0,0,0,0,0,0,0,0,0,0,0,0,0,0,0,0,0,0,0,0,0,0,0,0,0,0,0,0,0,0,0,0,0,0
853000116,Crolly,55.02381756,-8.26296189,N56,County_Donegal,14:15:00,0,0,0,0,0,0,0,0,0,0,0,0,0,0,0,0,0,0,0,0,0,0,0,0,0,0,0,0,0,0,0,0,0,0,0,0,0,0,0,0,0,0,0,0
8410B6076301,UL Student Centre,52.67278099,-8.570757043,Limerick city and suburbs,County_Limerick,0,0,0,0,16:30:00,0,0,0,0,0,0,0,0,0,0,0,0,0,0,0,0,0,0,0,0,0,0,0,0,0,0,0,0,0,0,0,0,0,0,0,0,0,0,0,0
8400B6086401,Dublin Road,52.66418068,-8.603168268,Limerick city and suburbs,County_Limerick,0,0,0,0,16:34:00,0,0,0,0,0,0,0,0,0,0,0,0,0,0,0,0,0,0,0,0,0,0,0,0,0,0,0,0,0,0,0,0,0,0,0,0,0,0,0,0
8400B6087801,Island Road,52.66959364,-8.621886878,Limerick city and suburbs,County_Limerick,0,0,0,0,16:36:00,0,0,0,0,0,0,0,0,0,0,0,0,0,0,0,0,0,0,0,0,0,0,0,0,0,0,0,0,0,0,0,0,0,0,0,0,0,0,0,0
8400B609441,Clare St (Urlan TV),52.66633657,-8.617375855,Limerick city and suburbs,County_Limerick,0,0,0,0,16:38:00,0,0,0,0,0,0,0,0,0,0,0,0,0,0,0,0,0,0,0,0,0,0,0,0,0,0,0,0,0,0,0,0,0,0,0,0,0,0,0,0
8400B6074401,De Valera Park,52.67224819,-8.636547983,Limerick city and suburbs,County_Limerick,0,0,0,0,16:40:00,0,0,0,0,0,0,0,0,0,0,0,0,0,0,0,0,0,0,0,0,0,0,0,0,0,0,0,0,0,0,0,0,0,0,0,0,0,0,0,0
8400B6068701,Mayorstone Upper,52.6734805,-8.64633976,Limerick city and suburbs,County_Limerick,0,0,0,0,16:45:00,0,0,0,0,0,0,0,0,0,0,0,0,0,0,0,0,0,0,0,0,0,0,0,0,0,0,0,0,0,0,0,0,0,0,0,0,0,0,0,0
847000078,West Wing Restaurant,53.50696306,-8.880946428,West Wing Restaurant,County_Galway,0,0,0,0,17:52:00,0,0,0,0,0,0,0,0,0,0,0,0,0,0,0,0,0,0,0,0,0,0,0,0,0,0,0,0,0,0,0,0,0,0,0,0,0,0,0,0
846000192,Galway Cathedral,53.27527019,-9.058258628,Galway city and suburbs,County_Galway,09:00:00,0,0,0,0,0,0,0,0,0,0,0,0,0,0,0,0,0,0,0,0,0,0,0,0,0,0,0,0,0,0,0,0,0,0,0,0,0,0,0,0,0,0,0,0
847000118,Level Crossing,53.51396854,-8.856816613,Tuam,County_Galway,09:25:00,0,0,0,0,0,0,0,0,0,0,0,0,0,0,0,0,0,0,0,0,0,0,0,0,0,0,0,0,0,0,0,0,0,0,0,0,0,0,0,0,0,0,0,0
849000355,The Square,53.71981748,-8.998796407,Claremorris,County_Mayo,09:50:00,0,0,0,0,0,0,0,0,0,0,0,0,0,0,0,0,0,0,0,0,0,0,0,0,0,0,0,0,0,0,0,0,0,0,0,0,0,0,0,0,0,0,0,0
849000298,Lennons Cafe,53.79548976,-8.918462017,Knock,County_Mayo,10:00:00,0,0,0,0,0,0,0,0,0,0,0,0,0,0,0,0,0,0,0,0,0,0,0,0,0,0,0,0,0,0,0,0,0,0,0,0,0,0,0,0,0,0,0,0
849000073,Sligo Road,53.96497101,-8.795493907,Charlestown-Bellahy,County_Mayo,10:20:00,0,0,0,0,0,0,0,0,0,0,0,0,0,0,0,0,0,0,0,0,0,0,0,0,0,0,0,0,0,0,0,0,0,0,0,0,0,0,0,0,0,0,0,0
851000082,Circular Road,54.05228823,-8.73501987,Tubbercurry,County_Sligo,10:30:00,0,0,0,0,0,0,0,0,0,0,0,0,0,0,0,0,0,0,0,0,0,0,0,0,0,0,0,0,0,0,0,0,0,0,0,0,0,0,0,0,0,0,0,0
8510PB002825,Ballinacarrow,54.13407301,-8.560833001,Ballinacarrow,County_Sligo,10:40:00,0,0,0,0,0,0,0,0,0,0,0,0,0,0,0,0,0,0,0,0,0,0,0,0,0,0,0,0,0,0,0,0,0,0,0,0,0,0,0,0,0,0,0,0
851000016,Hawthorn Court,54.18198753,-8.48591071,Collooney,County_Sligo,10:45:00,0,0,0,0,0,0,0,0,0,0,0,0,0,0,0,0,0,0,0,0,0,0,0,0,0,0,0,0,0,0,0,0,0,0,0,0,0,0,0,0,0,0,0,0
851000001,Markievicz Road,54.27279054,-8.473989627,Sligo,County_Sligo,11:15:00,0,0,0,0,0,0,0,0,0,0,0,0,0,0,0,0,0,0,0,0,0,0,0,0,0,0,0,0,0,0,0,0,0,0,0,0,0,0,0,0,0,0,0,0
851000008,Grange,54.393146,-8.523263,Grange,County_Sligo,11:25:00,0,0,0,0,0,0,0,0,0,0,0,0,0,0,0,0,0,0,0,0,0,0,0,0,0,0,0,0,0,0,0,0,0,0,0,0,0,0,0,0,0,0,0,0
853000100,Bundoran Centre,54.47789538,-8.280247146,Bundoran,County_Donegal,11:40:00,0,0,0,0,0,0,0,0,0,0,0,0,0,0,0,0,0,0,0,0,0,0,0,0,0,0,0,0,0,0,0,0,0,0,0,0,0,0,0,0,0,0,0,0
853000115,Ballyshannon,54.500992,-8.189952,Ballyshannon,County_Donegal,11:45:00,0,0,0,0,0,0,0,0,0,0,0,0,0,0,0,0,0,0,0,0,0,0,0,0,0,0,0,0,0,0,0,0,0,0,0,0,0,0,0,0,0,0,0,0
853000377,Opposite Garda Station,54.65267752,-8.111336492,Donegal,County_Donegal,12:05:00,0,0,0,0,0,0,0,0,0,0,0,0,0,0,0,0,0,0,0,0,0,0,0,0,0,0,0,0,0,0,0,0,0,0,0,0,0,0,0,0,0,0,0,0
853000076,Ballybofey,54.800148,-7.778756,Ballybofey-Stranorlar,County_Donegal,12:30:00,0,0,0,0,0,0,0,0,0,0,0,0,0,0,0,0,0,0,0,0,0,0,0,0,0,0,0,0,0,0,0,0,0,0,0,0,0,0,0,0,0,0,0,0
8530LL10831,Letterkenny Bus Station,54.95414234,-7.728641489,Letterkenny,County_Donegal,12:50:00,0,0,0,0,0,0,0,0,0,0,0,0,0,0,0,0,0,0,0,0,0,0,0,0,0,0,0,0,0,0,0,0,0,0,0,0,0,0,0,0,0,0,0,0
853000087,Kilmacrennan PO,55.02965903,-7.778463717,Kilmacrennan,County_Donegal,13:00:00,0,0,0,0,0,0,0,0,0,0,0,0,0,0,0,0,0,0,0,0,0,0,0,0,0,0,0,0,0,0,0,0,0,0,0,0,0,0,0,0,0,0,0,0
853000083,Creeslough,55.12118559,-7.905407798,Creeslough,County_Donegal,13:15:00,0,0,0,0,0,0,0,0,0,0,0,0,0,0,0,0,0,0,0,0,0,0,0,0,0,0,0,0,0,0,0,0,0,0,0,0,0,0,0,0,0,0,0,0
853000080,Dunfanaghy,55.18325504,-7.971691299,Dunfanaghy,County_Donegal,13:25:00,0,0,0,0,0,0,0,0,0,0,0,0,0,0,0,0,0,0,0,0,0,0,0,0,0,0,0,0,0,0,0,0,0,0,0,0,0,0,0,0,0,0,0,0
853000378,Public Phone Box,55.13638738,-8.105041321,An Fál Carrach,County_Donegal,13:40:00,0,0,0,0,0,0,0,0,0,0,0,0,0,0,0,0,0,0,0,0,0,0,0,0,0,0,0,0,0,0,0,0,0,0,0,0,0,0,0,0,0,0,0,0
8530PB000300,Gortahork,55.12152693,-8.133126276,Gort An Choirce,County_Donegal,13:45:00,0,0,0,0,0,0,0,0,0,0,0,0,0,0,0,0,0,0,0,0,0,0,0,0,0,0,0,0,0,0,0,0,0,0,0,0,0,0,0,0,0,0,0,0
853000379,Mollys Supermarket,55.07877753,-8.289631079,An Bun Beag-Doirí Beaga,County_Donegal,14:05:00,0,0,0,0,0,0,0,0,0,0,0,0,0,0,0,0,0,0,0,0,0,0,0,0,0,0,0,0,0,0,0,0,0,0,0,0,0,0,0,0,0,0,0,0
853000380,Bunbeg Crossroads,55.061177,-8.300805561,An Bun Beag-Doirí Beaga,County_Donegal,14:07:00,0,0,0,0,0,0,0,0,0,0,0,0,0,0,0,0,0,0,0,0,0,0,0,0,0,0,0,0,0,0,0,0,0,0,0,0,0,0,0,0,0,0,0,0
853000116,Crolly,55.02381756,-8.26296189,N56,County_Donegal,14:15:00,0,0,0,0,0,0,0,0,0,0,0,0,0,0,0,0,0,0,0,0,0,0,0,0,0,0,0,0,0,0,0,0,0,0,0,0,0,0,0,0,0,0,0,0
853000377,Opposite Garda Station,54.65267752,-8.111336492,Donegal,County_Donegal,0,0,0,0,0,16:30:00,0,0,0,0,0,0,0,0,0,0,0,0,0,0,0,0,0,0,0,0,0,0,0,0,0,0,0,0,0,0,0,0,0,0,0,0,0,0,0
853000112,Bayview Hotel,54.63655819,-8.441918352,Killybegs,County_Donegal,0,0,0,0,0,17:15:00,0,0,0,0,0,0,0,0,0,0,0,0,0,0,0,0,0,0,0,0,0,0,0,0,0,0,0,0,0,0,0,0,0,0,0,0,0,0,0
853000111,Ardara,54.76198074,-8.413544782,Ardara,County_Donegal,0,0,0,0,0,17:35:00,0,0,0,0,0,0,0,0,0,0,0,0,0,0,0,0,0,0,0,0,0,0,0,0,0,0,0,0,0,0,0,0,0,0,0,0,0,0,0
8530B141391,Glenties,54.79514436,-8.281597518,Glenties,County_Donegal,0,0,0,0,0,17:45:00,0,0,0,0,0,0,0,0,0,0,0,0,0,0,0,0,0,0,0,0,0,0,0,0,0,0,0,0,0,0,0,0,0,0,0,0,0,0,0
853000123,Community Hall,54.95046755,-8.358172758,An Clochán Liath,County_Donegal,0,0,0,0,0,18:15:00,0,0,0,0,0,0,0,0,0,0,0,0,0,0,0,0,0,0,0,0,0,0,0,0,0,0,0,0,0,0,0,0,0,0,0,0,0,0,0
853000041,Annagry,55.02203161,-8.318558521,Anagaire,County_Donegal,0,0,0,0,0,18:30:00,0,0,0,0,0,0,0,0,0,0,0,0,0,0,0,0,0,0,0,0,0,0,0,0,0,0,0,0,0,0,0,0,0,0,0,0,0,0,0
846000192,Galway Cathedral,53.27527019,-9.058258628,Galway city and suburbs,County_Galway,09:00:00,0,0,0,0,0,0,0,0,0,0,0,0,0,0,0,0,0,0,0,0,0,0,0,0,0,0,0,0,0,0,0,0,0,0,0,0,0,0,0,0,0,0,0,0
847000118,Level Crossing,53.51396854,-8.856816613,Tuam,County_Galway,09:25:00,0,0,0,0,0,0,0,0,0,0,0,0,0,0,0,0,0,0,0,0,0,0,0,0,0,0,0,0,0,0,0,0,0,0,0,0,0,0,0,0,0,0,0,0
849000355,The Square,53.71981748,-8.998796407,Claremorris,County_Mayo,09:50:00,0,0,0,0,0,0,0,0,0,0,0,0,0,0,0,0,0,0,0,0,0,0,0,0,0,0,0,0,0,0,0,0,0,0,0,0,0,0,0,0,0,0,0,0
849000298,Lennons Cafe,53.79548976,-8.918462017,Knock,County_Mayo,10:00:00,0,0,0,0,0,0,0,0,0,0,0,0,0,0,0,0,0,0,0,0,0,0,0,0,0,0,0,0,0,0,0,0,0,0,0,0,0,0,0,0,0,0,0,0
849000073,Sligo Road,53.96497101,-8.795493907,Charlestown-Bellahy,County_Mayo,10:20:00,0,0,0,0,0,0,0,0,0,0,0,0,0,0,0,0,0,0,0,0,0,0,0,0,0,0,0,0,0,0,0,0,0,0,0,0,0,0,0,0,0,0,0,0
851000082,Circular Road,54.05228823,-8.73501987,Tubbercurry,County_Sligo,10:30:00,0,0,0,0,0,0,0,0,0,0,0,0,0,0,0,0,0,0,0,0,0,0,0,0,0,0,0,0,0,0,0,0,0,0,0,0,0,0,0,0,0,0,0,0
8510PB002825,Ballinacarrow,54.13407301,-8.560833001,Ballinacarrow,County_Sligo,10:40:00,0,0,0,0,0,0,0,0,0,0,0,0,0,0,0,0,0,0,0,0,0,0,0,0,0,0,0,0,0,0,0,0,0,0,0,0,0,0,0,0,0,0,0,0
851000016,Hawthorn Court,54.18198753,-8.48591071,Collooney,County_Sligo,10:45:00,0,0,0,0,0,0,0,0,0,0,0,0,0,0,0,0,0,0,0,0,0,0,0,0,0,0,0,0,0,0,0,0,0,0,0,0,0,0,0,0,0,0,0,0
851000001,Markievicz Road,54.27279054,-8.473989627,Sligo,County_Sligo,11:15:00,0,0,0,0,0,0,0,0,0,0,0,0,0,0,0,0,0,0,0,0,0,0,0,0,0,0,0,0,0,0,0,0,0,0,0,0,0,0,0,0,0,0,0,0
851000008,Grange,54.393146,-8.523263,Grange,County_Sligo,11:25:00,0,0,0,0,0,0,0,0,0,0,0,0,0,0,0,0,0,0,0,0,0,0,0,0,0,0,0,0,0,0,0,0,0,0,0,0,0,0,0,0,0,0,0,0
853000100,Bundoran Centre,54.47789538,-8.280247146,Bundoran,County_Donegal,11:40:00,0,0,0,0,0,0,0,0,0,0,0,0,0,0,0,0,0,0,0,0,0,0,0,0,0,0,0,0,0,0,0,0,0,0,0,0,0,0,0,0,0,0,0,0
853000115,Ballyshannon,54.500992,-8.189952,Ballyshannon,County_Donegal,11:45:00,0,0,0,0,0,0,0,0,0,0,0,0,0,0,0,0,0,0,0,0,0,0,0,0,0,0,0,0,0,0,0,0,0,0,0,0,0,0,0,0,0,0,0,0
853000377,Opposite Garda Station,54.65267752,-8.111336492,Donegal,County_Donegal,12:05:00,0,0,0,0,0,0,0,0,0,0,0,0,0,0,0,0,0,0,0,0,0,0,0,0,0,0,0,0,0,0,0,0,0,0,0,0,0,0,0,0,0,0,0,0
853000076,Ballybofey,54.800148,-7.778756,Ballybofey-Stranorlar,County_Donegal,12:30:00,0,0,0,0,0,0,0,0,0,0,0,0,0,0,0,0,0,0,0,0,0,0,0,0,0,0,0,0,0,0,0,0,0,0,0,0,0,0,0,0,0,0,0,0
8530LL10831,Letterkenny Bus Station,54.95414234,-7.728641489,Letterkenny,County_Donegal,12:50:00,0,0,0,0,0,0,0,0,0,0,0,0,0,0,0,0,0,0,0,0,0,0,0,0,0,0,0,0,0,0,0,0,0,0,0,0,0,0,0,0,0,0,0,0
853000087,Kilmacrennan PO,55.02965903,-7.778463717,Kilmacrennan,County_Donegal,13:00:00,0,0,0,0,0,0,0,0,0,0,0,0,0,0,0,0,0,0,0,0,0,0,0,0,0,0,0,0,0,0,0,0,0,0,0,0,0,0,0,0,0,0,0,0
853000083,Creeslough,55.12118559,-7.905407798,Creeslough,County_Donegal,13:15:00,0,0,0,0,0,0,0,0,0,0,0,0,0,0,0,0,0,0,0,0,0,0,0,0,0,0,0,0,0,0,0,0,0,0,0,0,0,0,0,0,0,0,0,0
853000080,Dunfanaghy,55.18325504,-7.971691299,Dunfanaghy,County_Donegal,13:25:00,0,0,0,0,0,0,0,0,0,0,0,0,0,0,0,0,0,0,0,0,0,0,0,0,0,0,0,0,0,0,0,0,0,0,0,0,0,0,0,0,0,0,0,0
853000378,Public Phone Box,55.13638738,-8.105041321,An Fál Carrach,County_Donegal,13:40:00,0,0,0,0,0,0,0,0,0,0,0,0,0,0,0,0,0,0,0,0,0,0,0,0,0,0,0,0,0,0,0,0,0,0,0,0,0,0,0,0,0,0,0,0
8530PB000300,Gortahork,55.12152693,-8.133126276,Gort An Choirce,County_Donegal,13:45:00,0,0,0,0,0,0,0,0,0,0,0,0,0,0,0,0,0,0,0,0,0,0,0,0,0,0,0,0,0,0,0,0,0,0,0,0,0,0,0,0,0,0,0,0
853000379,Mollys Supermarket,55.07877753,-8.289631079,An Bun Beag-Doirí Beaga,County_Donegal,14:05:00,0,0,0,0,0,0,0,0,0,0,0,0,0,0,0,0,0,0,0,0,0,0,0,0,0,0,0,0,0,0,0,0,0,0,0,0,0,0,0,0,0,0,0,0
853000380,Bunbeg Crossroads,55.061177,-8.300805561,An Bun Beag-Doirí Beaga,County_Donegal,14:07:00,0,0,0,0,0,0,0,0,0,0,0,0,0,0,0,0,0,0,0,0,0,0,0,0,0,0,0,0,0,0,0,0,0,0,0,0,0,0,0,0,0,0,0,0
853000116,Crolly,55.02381756,-8.26296189,N56,County_Donegal,14:15:00,0,0,0,0,0,0,0,0,0,0,0,0,0,0,0,0,0,0,0,0,0,0,0,0,0,0,0,0,0,0,0,0,0,0,0,0,0,0,0,0,0,0,0,0
8490B5530801,Knock Airport,53.91406566,-8.81263954,Knock Airport,County_Mayo,0,0,0,0,0,0,17:10:00,0,0,0,0,0,0,0,0,0,0,0,0,0,0,0,0,0,0,0,0,0,0,0,0,0,0,0,0,0,0,0,0,0,0,0,0,0,0
8490B141641,Market Square,53.96396871,-8.794865239,Charlestown-Bellahy,County_Mayo,0,0,0,0,0,0,17:20:00,0,0,0,0,0,0,0,0,0,0,0,0,0,0,0,0,0,0,0,0,0,0,0,0,0,0,0,0,0,0,0,0,0,0,0,0,0,0
8490B5530801,Knock Airport,53.91406566,-8.81263954,Knock Airport,County_Mayo,0,0,0,0,0,0,17:30:00,0,0,0,0,0,0,0,0,0,0,0,0,0,0,0,0,0,0,0,0,0,0,0,0,0,0,0,0,0,0,0,0,0,0,0,0,0,0
846000192,Galway Cathedral,53.27527019,-9.058258628,Galway city and suburbs,County_Galway,09:00:00,0,0,0,0,0,0,0,0,0,0,0,0,0,0,0,0,0,0,0,0,0,0,0,0,0,0,0,0,0,0,0,0,0,0,0,0,0,0,0,0,0,0,0,0
847000118,Level Crossing,53.51396854,-8.856816613,Tuam,County_Galway,09:25:00,0,0,0,0,0,0,0,0,0,0,0,0,0,0,0,0,0,0,0,0,0,0,0,0,0,0,0,0,0,0,0,0,0,0,0,0,0,0,0,0,0,0,0,0
849000355,The Square,53.71981748,-8.998796407,Claremorris,County_Mayo,09:50:00,0,0,0,0,0,0,0,0,0,0,0,0,0,0,0,0,0,0,0,0,0,0,0,0,0,0,0,0,0,0,0,0,0,0,0,0,0,0,0,0,0,0,0,0
849000298,Lennons Cafe,53.79548976,-8.918462017,Knock,County_Mayo,10:00:00,0,0,0,0,0,0,0,0,0,0,0,0,0,0,0,0,0,0,0,0,0,0,0,0,0,0,0,0,0,0,0,0,0,0,0,0,0,0,0,0,0,0,0,0
849000073,Sligo Road,53.96497101,-8.795493907,Charlestown-Bellahy,County_Mayo,10:20:00,0,0,0,0,0,0,0,0,0,0,0,0,0,0,0,0,0,0,0,0,0,0,0,0,0,0,0,0,0,0,0,0,0,0,0,0,0,0,0,0,0,0,0,0
851000082,Circular Road,54.05228823,-8.73501987,Tubbercurry,County_Sligo,10:30:00,0,0,0,0,0,0,0,0,0,0,0,0,0,0,0,0,0,0,0,0,0,0,0,0,0,0,0,0,0,0,0,0,0,0,0,0,0,0,0,0,0,0,0,0
8510PB002825,Ballinacarrow,54.13407301,-8.560833001,Ballinacarrow,County_Sligo,10:40:00,0,0,0,0,0,0,0,0,0,0,0,0,0,0,0,0,0,0,0,0,0,0,0,0,0,0,0,0,0,0,0,0,0,0,0,0,0,0,0,0,0,0,0,0
851000016,Hawthorn Court,54.18198753,-8.48591071,Collooney,County_Sligo,10:45:00,0,0,0,0,0,0,0,0,0,0,0,0,0,0,0,0,0,0,0,0,0,0,0,0,0,0,0,0,0,0,0,0,0,0,0,0,0,0,0,0,0,0,0,0
851000001,Markievicz Road,54.27279054,-8.473989627,Sligo,County_Sligo,11:15:00,0,0,0,0,0,0,0,0,0,0,0,0,0,0,0,0,0,0,0,0,0,0,0,0,0,0,0,0,0,0,0,0,0,0,0,0,0,0,0,0,0,0,0,0
851000008,Grange,54.393146,-8.523263,Grange,County_Sligo,11:25:00,0,0,0,0,0,0,0,0,0,0,0,0,0,0,0,0,0,0,0,0,0,0,0,0,0,0,0,0,0,0,0,0,0,0,0,0,0,0,0,0,0,0,0,0
853000100,Bundoran Centre,54.47789538,-8.280247146,Bundoran,County_Donegal,11:40:00,0,0,0,0,0,0,0,0,0,0,0,0,0,0,0,0,0,0,0,0,0,0,0,0,0,0,0,0,0,0,0,0,0,0,0,0,0,0,0,0,0,0,0,0
853000115,Ballyshannon,54.500992,-8.189952,Ballyshannon,County_Donegal,11:45:00,0,0,0,0,0,0,0,0,0,0,0,0,0,0,0,0,0,0,0,0,0,0,0,0,0,0,0,0,0,0,0,0,0,0,0,0,0,0,0,0,0,0,0,0
853000377,Opposite Garda Station,54.65267752,-8.111336492,Donegal,County_Donegal,12:05:00,0,0,0,0,0,0,0,0,0,0,0,0,0,0,0,0,0,0,0,0,0,0,0,0,0,0,0,0,0,0,0,0,0,0,0,0,0,0,0,0,0,0,0,0
853000076,Ballybofey,54.800148,-7.778756,Ballybofey-Stranorlar,County_Donegal,12:30:00,0,0,0,0,0,0,0,0,0,0,0,0,0,0,0,0,0,0,0,0,0,0,0,0,0,0,0,0,0,0,0,0,0,0,0,0,0,0,0,0,0,0,0,0
8530LL10831,Letterkenny Bus Station,54.95414234,-7.728641489,Letterkenny,County_Donegal,12:50:00,0,0,0,0,0,0,0,0,0,0,0,0,0,0,0,0,0,0,0,0,0,0,0,0,0,0,0,0,0,0,0,0,0,0,0,0,0,0,0,0,0,0,0,0
853000087,Kilmacrennan PO,55.02965903,-7.778463717,Kilmacrennan,County_Donegal,13:00:00,0,0,0,0,0,0,0,0,0,0,0,0,0,0,0,0,0,0,0,0,0,0,0,0,0,0,0,0,0,0,0,0,0,0,0,0,0,0,0,0,0,0,0,0
853000083,Creeslough,55.12118559,-7.905407798,Creeslough,County_Donegal,13:15:00,0,0,0,0,0,0,0,0,0,0,0,0,0,0,0,0,0,0,0,0,0,0,0,0,0,0,0,0,0,0,0,0,0,0,0,0,0,0,0,0,0,0,0,0
853000080,Dunfanaghy,55.18325504,-7.971691299,Dunfanaghy,County_Donegal,13:25:00,0,0,0,0,0,0,0,0,0,0,0,0,0,0,0,0,0,0,0,0,0,0,0,0,0,0,0,0,0,0,0,0,0,0,0,0,0,0,0,0,0,0,0,0
853000378,Public Phone Box,55.13638738,-8.105041321,An Fál Carrach,County_Donegal,13:40:00,0,0,0,0,0,0,0,0,0,0,0,0,0,0,0,0,0,0,0,0,0,0,0,0,0,0,0,0,0,0,0,0,0,0,0,0,0,0,0,0,0,0,0,0
8530PB000300,Gortahork,55.12152693,-8.133126276,Gort An Choirce,County_Donegal,13:45:00,0,0,0,0,0,0,0,0,0,0,0,0,0,0,0,0,0,0,0,0,0,0,0,0,0,0,0,0,0,0,0,0,0,0,0,0,0,0,0,0,0,0,0,0
853000379,Mollys Supermarket,55.07877753,-8.289631079,An Bun Beag-Doirí Beaga,County_Donegal,14:05:00,0,0,0,0,0,0,0,0,0,0,0,0,0,0,0,0,0,0,0,0,0,0,0,0,0,0,0,0,0,0,0,0,0,0,0,0,0,0,0,0,0,0,0,0
853000380,Bunbeg Crossroads,55.061177,-8.300805561,An Bun Beag-Doirí Beaga,County_Donegal,14:07:00,0,0,0,0,0,0,0,0,0,0,0,0,0,0,0,0,0,0,0,0,0,0,0,0,0,0,0,0,0,0,0,0,0,0,0,0,0,0,0,0,0,0,0,0
853000116,Crolly,55.02381756,-8.26296189,N56,County_Donegal,14:15:00,0,0,0,0,0,0,0,0,0,0,0,0,0,0,0,0,0,0,0,0,0,0,0,0,0,0,0,0,0,0,0,0,0,0,0,0,0,0,0,0,0,0,0,0
8490B5530801,Knock Airport,53.91406566,-8.81263954,Knock Airport,County_Mayo,0,0,0,0,0,0,0,17:10:00,0,0,0,0,0,0,0,0,0,0,0,0,0,0,0,0,0,0,0,0,0,0,0,0,0,0,0,0,0,0,0,0,0,0,0,0,0
8490B141641,Market Square,53.96396871,-8.794865239,Charlestown-Bellahy,County_Mayo,0,0,0,0,0,0,0,17:20:00,0,0,0,0,0,0,0,0,0,0,0,0,0,0,0,0,0,0,0,0,0,0,0,0,0,0,0,0,0,0,0,0,0,0,0,0,0
8490B5530801,Knock Airport,53.91406566,-8.81263954,Knock Airport,County_Mayo,0,0,0,0,0,0,0,17:30:00,0,0,0,0,0,0,0,0,0,0,0,0,0,0,0,0,0,0,0,0,0,0,0,0,0,0,0,0,0,0,0,0,0,0,0,0,0
846000192,Galway Cathedral,53.27527019,-9.058258628,Galway city and suburbs,County_Galway,09:00:00,0,0,0,0,0,0,0,0,0,0,0,0,0,0,0,0,0,0,0,0,0,0,0,0,0,0,0,0,0,0,0,0,0,0,0,0,0,0,0,0,0,0,0,0
847000118,Level Crossing,53.51396854,-8.856816613,Tuam,County_Galway,09:25:00,0,0,0,0,0,0,0,0,0,0,0,0,0,0,0,0,0,0,0,0,0,0,0,0,0,0,0,0,0,0,0,0,0,0,0,0,0,0,0,0,0,0,0,0
849000355,The Square,53.71981748,-8.998796407,Claremorris,County_Mayo,09:50:00,0,0,0,0,0,0,0,0,0,0,0,0,0,0,0,0,0,0,0,0,0,0,0,0,0,0,0,0,0,0,0,0,0,0,0,0,0,0,0,0,0,0,0,0
849000298,Lennons Cafe,53.79548976,-8.918462017,Knock,County_Mayo,10:00:00,0,0,0,0,0,0,0,0,0,0,0,0,0,0,0,0,0,0,0,0,0,0,0,0,0,0,0,0,0,0,0,0,0,0,0,0,0,0,0,0,0,0,0,0
849000073,Sligo Road,53.96497101,-8.795493907,Charlestown-Bellahy,County_Mayo,10:20:00,0,0,0,0,0,0,0,0,0,0,0,0,0,0,0,0,0,0,0,0,0,0,0,0,0,0,0,0,0,0,0,0,0,0,0,0,0,0,0,0,0,0,0,0
851000082,Circular Road,54.05228823,-8.73501987,Tubbercurry,County_Sligo,10:30:00,0,0,0,0,0,0,0,0,0,0,0,0,0,0,0,0,0,0,0,0,0,0,0,0,0,0,0,0,0,0,0,0,0,0,0,0,0,0,0,0,0,0,0,0
8510PB002825,Ballinacarrow,54.13407301,-8.560833001,Ballinacarrow,County_Sligo,10:40:00,0,0,0,0,0,0,0,0,0,0,0,0,0,0,0,0,0,0,0,0,0,0,0,0,0,0,0,0,0,0,0,0,0,0,0,0,0,0,0,0,0,0,0,0
851000016,Hawthorn Court,54.18198753,-8.48591071,Collooney,County_Sligo,10:45:00,0,0,0,0,0,0,0,0,0,0,0,0,0,0,0,0,0,0,0,0,0,0,0,0,0,0,0,0,0,0,0,0,0,0,0,0,0,0,0,0,0,0,0,0
851000001,Markievicz Road,54.27279054,-8.473989627,Sligo,County_Sligo,11:15:00,0,0,0,0,0,0,0,0,0,0,0,0,0,0,0,0,0,0,0,0,0,0,0,0,0,0,0,0,0,0,0,0,0,0,0,0,0,0,0,0,0,0,0,0
851000008,Grange,54.393146,-8.523263,Grange,County_Sligo,11:25:00,0,0,0,0,0,0,0,0,0,0,0,0,0,0,0,0,0,0,0,0,0,0,0,0,0,0,0,0,0,0,0,0,0,0,0,0,0,0,0,0,0,0,0,0
853000100,Bundoran Centre,54.47789538,-8.280247146,Bundoran,County_Donegal,11:40:00,0,0,0,0,0,0,0,0,0,0,0,0,0,0,0,0,0,0,0,0,0,0,0,0,0,0,0,0,0,0,0,0,0,0,0,0,0,0,0,0,0,0,0,0
853000115,Ballyshannon,54.500992,-8.189952,Ballyshannon,County_Donegal,11:45:00,0,0,0,0,0,0,0,0,0,0,0,0,0,0,0,0,0,0,0,0,0,0,0,0,0,0,0,0,0,0,0,0,0,0,0,0,0,0,0,0,0,0,0,0
853000377,Opposite Garda Station,54.65267752,-8.111336492,Donegal,County_Donegal,12:05:00,0,0,0,0,0,0,0,0,0,0,0,0,0,0,0,0,0,0,0,0,0,0,0,0,0,0,0,0,0,0,0,0,0,0,0,0,0,0,0,0,0,0,0,0
853000076,Ballybofey,54.800148,-7.778756,Ballybofey-Stranorlar,County_Donegal,12:30:00,0,0,0,0,0,0,0,0,0,0,0,0,0,0,0,0,0,0,0,0,0,0,0,0,0,0,0,0,0,0,0,0,0,0,0,0,0,0,0,0,0,0,0,0
8530LL10831,Letterkenny Bus Station,54.95414234,-7.728641489,Letterkenny,County_Donegal,12:50:00,0,0,0,0,0,0,0,0,0,0,0,0,0,0,0,0,0,0,0,0,0,0,0,0,0,0,0,0,0,0,0,0,0,0,0,0,0,0,0,0,0,0,0,0
853000087,Kilmacrennan PO,55.02965903,-7.778463717,Kilmacrennan,County_Donegal,13:00:00,0,0,0,0,0,0,0,0,0,0,0,0,0,0,0,0,0,0,0,0,0,0,0,0,0,0,0,0,0,0,0,0,0,0,0,0,0,0,0,0,0,0,0,0
853000083,Creeslough,55.12118559,-7.905407798,Creeslough,County_Donegal,13:15:00,0,0,0,0,0,0,0,0,0,0,0,0,0,0,0,0,0,0,0,0,0,0,0,0,0,0,0,0,0,0,0,0,0,0,0,0,0,0,0,0,0,0,0,0
853000080,Dunfanaghy,55.18325504,-7.971691299,Dunfanaghy,County_Donegal,13:25:00,0,0,0,0,0,0,0,0,0,0,0,0,0,0,0,0,0,0,0,0,0,0,0,0,0,0,0,0,0,0,0,0,0,0,0,0,0,0,0,0,0,0,0,0
853000378,Public Phone Box,55.13638738,-8.105041321,An Fál Carrach,County_Donegal,13:40:00,0,0,0,0,0,0,0,0,0,0,0,0,0,0,0,0,0,0,0,0,0,0,0,0,0,0,0,0,0,0,0,0,0,0,0,0,0,0,0,0,0,0,0,0
8530PB000300,Gortahork,55.12152693,-8.133126276,Gort An Choirce,County_Donegal,13:45:00,0,0,0,0,0,0,0,0,0,0,0,0,0,0,0,0,0,0,0,0,0,0,0,0,0,0,0,0,0,0,0,0,0,0,0,0,0,0,0,0,0,0,0,0
853000379,Mollys Supermarket,55.07877753,-8.289631079,An Bun Beag-Doirí Beaga,County_Donegal,14:05:00,0,0,0,0,0,0,0,0,0,0,0,0,0,0,0,0,0,0,0,0,0,0,0,0,0,0,0,0,0,0,0,0,0,0,0,0,0,0,0,0,0,0,0,0
853000380,Bunbeg Crossroads,55.061177,-8.300805561,An Bun Beag-Doirí Beaga,County_Donegal,14:07:00,0,0,0,0,0,0,0,0,0,0,0,0,0,0,0,0,0,0,0,0,0,0,0,0,0,0,0,0,0,0,0,0,0,0,0,0,0,0,0,0,0,0,0,0
853000116,Crolly,55.02381756,-8.26296189,N56,County_Donegal,14:15:00,0,0,0,0,0,0,0,0,0,0,0,0,0,0,0,0,0,0,0,0,0,0,0,0,0,0,0,0,0,0,0,0,0,0,0,0,0,0,0,0,0,0,0,0
846000192,Galway Cathedral,53.27527019,-9.058258628,Galway city and suburbs,County_Galway,0,0,0,0,0,0,0,0,17:30:00,0,0,0,0,0,0,0,0,0,0,0,0,0,0,0,0,0,0,0,0,0,0,0,0,0,0,0,0,0,0,0,0,0,0,0,0
847000078,West Wing Restaurant,53.50696306,-8.880946428,West Wing Restaurant,County_Galway,0,0,0,0,0,0,0,0,17:52:00,0,0,0,0,0,0,0,0,0,0,0,0,0,0,0,0,0,0,0,0,0,0,0,0,0,0,0,0,0,0,0,0,0,0,0,0
847000118,Level Crossing,53.51396854,-8.856816613,Tuam,County_Galway,0,0,0,0,0,0,0,0,17:55:00,0,0,0,0,0,0,0,0,0,0,0,0,0,0,0,0,0,0,0,0,0,0,0,0,0,0,0,0,0,0,0,0,0,0,0,0
849000355,The Square,53.71981748,-8.998796407,Claremorris,County_Mayo,0,0,0,0,0,0,0,0,18:20:00,0,0,0,0,0,0,0,0,0,0,0,0,0,0,0,0,0,0,0,0,0,0,0,0,0,0,0,0,0,0,0,0,0,0,0,0
849000298,Lennons Cafe,53.79548976,-8.918462017,Knock,County_Mayo,0,0,0,0,0,0,0,0,18:30:00,0,0,0,0,0,0,0,0,0,0,0,0,0,0,0,0,0,0,0,0,0,0,0,0,0,0,0,0,0,0,0,0,0,0,0,0
849000073,Sligo Road,53.96497101,-8.795493907,Charlestown-Bellahy,County_Mayo,0,0,0,0,0,0,0,0,18:50:00,0,0,0,0,0,0,0,0,0,0,0,0,0,0,0,0,0,0,0,0,0,0,0,0,0,0,0,0,0,0,0,0,0,0,0,0
851000082,Circular Road,54.05228823,-8.73501987,Tubbercurry,County_Sligo,0,0,0,0,0,0,0,0,19:00:00,0,0,0,0,0,0,0,0,0,0,0,0,0,0,0,0,0,0,0,0,0,0,0,0,0,0,0,0,0,0,0,0,0,0,0,0
8510PB002825,Ballinacarrow,54.13407301,-8.560833001,Ballinacarrow,County_Sligo,0,0,0,0,0,0,0,0,19:10:00,0,0,0,0,0,0,0,0,0,0,0,0,0,0,0,0,0,0,0,0,0,0,0,0,0,0,0,0,0,0,0,0,0,0,0,0
851000016,Hawthorn Court,54.18198753,-8.48591071,Collooney,County_Sligo,0,0,0,0,0,0,0,0,19:15:00,0,0,0,0,0,0,0,0,0,0,0,0,0,0,0,0,0,0,0,0,0,0,0,0,0,0,0,0,0,0,0,0,0,0,0,0
851000001,Markievicz Road,54.27279054,-8.473989627,Sligo,County_Sligo,0,0,0,0,0,0,0,0,20:00:00,0,0,0,0,0,0,0,0,0,0,0,0,0,0,0,0,0,0,0,0,0,0,0,0,0,0,0,0,0,0,0,0,0,0,0,0
851000008,Grange,54.393146,-8.523263,Grange,County_Sligo,0,0,0,0,0,0,0,0,20:10:00,0,0,0,0,0,0,0,0,0,0,0,0,0,0,0,0,0,0,0,0,0,0,0,0,0,0,0,0,0,0,0,0,0,0,0,0
853000100,Bundoran Centre,54.47789538,-8.280247146,Bundoran,County_Donegal,0,0,0,0,0,0,0,0,20:25:00,0,0,0,0,0,0,0,0,0,0,0,0,0,0,0,0,0,0,0,0,0,0,0,0,0,0,0,0,0,0,0,0,0,0,0,0
853000115,Ballyshannon,54.500992,-8.189952,Ballyshannon,County_Donegal,0,0,0,0,0,0,0,0,20:30:00,0,0,0,0,0,0,0,0,0,0,0,0,0,0,0,0,0,0,0,0,0,0,0,0,0,0,0,0,0,0,0,0,0,0,0,0
853000377,Opposite Garda Station,54.65267752,-8.111336492,Donegal,County_Donegal,0,0,0,0,0,0,0,0,20:50:00,0,0,0,0,0,0,0,0,0,0,0,0,0,0,0,0,0,0,0,0,0,0,0,0,0,0,0,0,0,0,0,0,0,0,0,0
853000076,Ballybofey,54.800148,-7.778756,Ballybofey-Stranorlar,County_Donegal,0,0,0,0,0,0,0,0,21:15:00,0,0,0,0,0,0,0,0,0,0,0,0,0,0,0,0,0,0,0,0,0,0,0,0,0,0,0,0,0,0,0,0,0,0,0,0
8530LL10831,Letterkenny Bus Station,54.95414234,-7.728641489,Letterkenny,County_Donegal,0,0,0,0,0,0,0,0,21:40:00,0,0,0,0,0,0,0,0,0,0,0,0,0,0,0,0,0,0,0,0,0,0,0,0,0,0,0,0,0,0,0,0,0,0,0,0
853000087,Kilmacrennan PO,55.02965903,-7.778463717,Kilmacrennan,County_Donegal,0,0,0,0,0,0,0,0,21:50:00,0,0,0,0,0,0,0,0,0,0,0,0,0,0,0,0,0,0,0,0,0,0,0,0,0,0,0,0,0,0,0,0,0,0,0,0
853000083,Creeslough,55.12118559,-7.905407798,Creeslough,County_Donegal,0,0,0,0,0,0,0,0,22:05:00,0,0,0,0,0,0,0,0,0,0,0,0,0,0,0,0,0,0,0,0,0,0,0,0,0,0,0,0,0,0,0,0,0,0,0,0
853000080,Dunfanaghy,55.18325504,-7.971691299,Dunfanaghy,County_Donegal,0,0,0,0,0,0,0,0,22:15:00,0,0,0,0,0,0,0,0,0,0,0,0,0,0,0,0,0,0,0,0,0,0,0,0,0,0,0,0,0,0,0,0,0,0,0,0
853000378,Public Phone Box,55.13638738,-8.105041321,An Fál Carrach,County_Donegal,0,0,0,0,0,0,0,0,22:30:00,0,0,0,0,0,0,0,0,0,0,0,0,0,0,0,0,0,0,0,0,0,0,0,0,0,0,0,0,0,0,0,0,0,0,0,0
8530PB000300,Gortahork,55.12152693,-8.133126276,Gort An Choirce,County_Donegal,0,0,0,0,0,0,0,0,22:35:00,0,0,0,0,0,0,0,0,0,0,0,0,0,0,0,0,0,0,0,0,0,0,0,0,0,0,0,0,0,0,0,0,0,0,0,0
853000379,Mollys Supermarket,55.07877753,-8.289631079,An Bun Beag-Doirí Beaga,County_Donegal,0,0,0,0,0,0,0,0,22:55:00,0,0,0,0,0,0,0,0,0,0,0,0,0,0,0,0,0,0,0,0,0,0,0,0,0,0,0,0,0,0,0,0,0,0,0,0
853000380,Bunbeg Crossroads,55.061177,-8.300805561,An Bun Beag-Doirí Beaga,County_Donegal,0,0,0,0,0,0,0,0,22:57:00,0,0,0,0,0,0,0,0,0,0,0,0,0,0,0,0,0,0,0,0,0,0,0,0,0,0,0,0,0,0,0,0,0,0,0,0
853000116,Crolly,55.02381756,-8.26296189,N56,County_Donegal,0,0,0,0,0,0,0,0,23:05:00,0,0,0,0,0,0,0,0,0,0,0,0,0,0,0,0,0,0,0,0,0,0,0,0,0,0,0,0,0,0,0,0,0,0,0,0
846000192,Galway Cathedral,53.27527019,-9.058258628,Galway city and suburbs,County_Galway,09:00:00,0,0,0,0,0,0,0,0,0,0,0,0,0,0,0,0,0,0,0,0,0,0,0,0,0,0,0,0,0,0,0,0,0,0,0,0,0,0,0,0,0,0,0,0
847000118,Level Crossing,53.51396854,-8.856816613,Tuam,County_Galway,09:25:00,0,0,0,0,0,0,0,0,0,0,0,0,0,0,0,0,0,0,0,0,0,0,0,0,0,0,0,0,0,0,0,0,0,0,0,0,0,0,0,0,0,0,0,0
849000355,The Square,53.71981748,-8.998796407,Claremorris,County_Mayo,09:50:00,0,0,0,0,0,0,0,0,0,0,0,0,0,0,0,0,0,0,0,0,0,0,0,0,0,0,0,0,0,0,0,0,0,0,0,0,0,0,0,0,0,0,0,0
849000298,Lennons Cafe,53.79548976,-8.918462017,Knock,County_Mayo,10:00:00,0,0,0,0,0,0,0,0,0,0,0,0,0,0,0,0,0,0,0,0,0,0,0,0,0,0,0,0,0,0,0,0,0,0,0,0,0,0,0,0,0,0,0,0
849000073,Sligo Road,53.96497101,-8.795493907,Charlestown-Bellahy,County_Mayo,10:20:00,0,0,0,0,0,0,0,0,0,0,0,0,0,0,0,0,0,0,0,0,0,0,0,0,0,0,0,0,0,0,0,0,0,0,0,0,0,0,0,0,0,0,0,0
851000082,Circular Road,54.05228823,-8.73501987,Tubbercurry,County_Sligo,10:30:00,0,0,0,0,0,0,0,0,0,0,0,0,0,0,0,0,0,0,0,0,0,0,0,0,0,0,0,0,0,0,0,0,0,0,0,0,0,0,0,0,0,0,0,0
8510PB002825,Ballinacarrow,54.13407301,-8.560833001,Ballinacarrow,County_Sligo,10:40:00,0,0,0,0,0,0,0,0,0,0,0,0,0,0,0,0,0,0,0,0,0,0,0,0,0,0,0,0,0,0,0,0,0,0,0,0,0,0,0,0,0,0,0,0
851000016,Hawthorn Court,54.18198753,-8.48591071,Collooney,County_Sligo,10:45:00,0,0,0,0,0,0,0,0,0,0,0,0,0,0,0,0,0,0,0,0,0,0,0,0,0,0,0,0,0,0,0,0,0,0,0,0,0,0,0,0,0,0,0,0
851000001,Markievicz Road,54.27279054,-8.473989627,Sligo,County_Sligo,11:15:00,0,0,0,0,0,0,0,0,0,0,0,0,0,0,0,0,0,0,0,0,0,0,0,0,0,0,0,0,0,0,0,0,0,0,0,0,0,0,0,0,0,0,0,0
851000008,Grange,54.393146,-8.523263,Grange,County_Sligo,11:25:00,0,0,0,0,0,0,0,0,0,0,0,0,0,0,0,0,0,0,0,0,0,0,0,0,0,0,0,0,0,0,0,0,0,0,0,0,0,0,0,0,0,0,0,0
853000100,Bundoran Centre,54.47789538,-8.280247146,Bundoran,County_Donegal,11:40:00,0,0,0,0,0,0,0,0,0,0,0,0,0,0,0,0,0,0,0,0,0,0,0,0,0,0,0,0,0,0,0,0,0,0,0,0,0,0,0,0,0,0,0,0
853000115,Ballyshannon,54.500992,-8.189952,Ballyshannon,County_Donegal,11:45:00,0,0,0,0,0,0,0,0,0,0,0,0,0,0,0,0,0,0,0,0,0,0,0,0,0,0,0,0,0,0,0,0,0,0,0,0,0,0,0,0,0,0,0,0
853000377,Opposite Garda Station,54.65267752,-8.111336492,Donegal,County_Donegal,12:05:00,0,0,0,0,0,0,0,0,0,0,0,0,0,0,0,0,0,0,0,0,0,0,0,0,0,0,0,0,0,0,0,0,0,0,0,0,0,0,0,0,0,0,0,0
853000076,Ballybofey,54.800148,-7.778756,Ballybofey-Stranorlar,County_Donegal,12:30:00,0,0,0,0,0,0,0,0,0,0,0,0,0,0,0,0,0,0,0,0,0,0,0,0,0,0,0,0,0,0,0,0,0,0,0,0,0,0,0,0,0,0,0,0
8530LL10831,Letterkenny Bus Station,54.95414234,-7.728641489,Letterkenny,County_Donegal,12:50:00,0,0,0,0,0,0,0,0,0,0,0,0,0,0,0,0,0,0,0,0,0,0,0,0,0,0,0,0,0,0,0,0,0,0,0,0,0,0,0,0,0,0,0,0
853000087,Kilmacrennan PO,55.02965903,-7.778463717,Kilmacrennan,County_Donegal,13:00:00,0,0,0,0,0,0,0,0,0,0,0,0,0,0,0,0,0,0,0,0,0,0,0,0,0,0,0,0,0,0,0,0,0,0,0,0,0,0,0,0,0,0,0,0
853000083,Creeslough,55.12118559,-7.905407798,Creeslough,County_Donegal,13:15:00,0,0,0,0,0,0,0,0,0,0,0,0,0,0,0,0,0,0,0,0,0,0,0,0,0,0,0,0,0,0,0,0,0,0,0,0,0,0,0,0,0,0,0,0
853000080,Dunfanaghy,55.18325504,-7.971691299,Dunfanaghy,County_Donegal,13:25:00,0,0,0,0,0,0,0,0,0,0,0,0,0,0,0,0,0,0,0,0,0,0,0,0,0,0,0,0,0,0,0,0,0,0,0,0,0,0,0,0,0,0,0,0
853000378,Public Phone Box,55.13638738,-8.105041321,An Fál Carrach,County_Donegal,13:40:00,0,0,0,0,0,0,0,0,0,0,0,0,0,0,0,0,0,0,0,0,0,0,0,0,0,0,0,0,0,0,0,0,0,0,0,0,0,0,0,0,0,0,0,0
8530PB000300,Gortahork,55.12152693,-8.133126276,Gort An Choirce,County_Donegal,13:45:00,0,0,0,0,0,0,0,0,0,0,0,0,0,0,0,0,0,0,0,0,0,0,0,0,0,0,0,0,0,0,0,0,0,0,0,0,0,0,0,0,0,0,0,0
853000379,Mollys Supermarket,55.07877753,-8.289631079,An Bun Beag-Doirí Beaga,County_Donegal,14:05:00,0,0,0,0,0,0,0,0,0,0,0,0,0,0,0,0,0,0,0,0,0,0,0,0,0,0,0,0,0,0,0,0,0,0,0,0,0,0,0,0,0,0,0,0
853000380,Bunbeg Crossroads,55.061177,-8.300805561,An Bun Beag-Doirí Beaga,County_Donegal,14:07:00,0,0,0,0,0,0,0,0,0,0,0,0,0,0,0,0,0,0,0,0,0,0,0,0,0,0,0,0,0,0,0,0,0,0,0,0,0,0,0,0,0,0,0,0
853000116,Crolly,55.02381756,-8.26296189,N56,County_Donegal,14:15:00,0,0,0,0,0,0,0,0,0,0,0,0,0,0,0,0,0,0,0,0,0,0,0,0,0,0,0,0,0,0,0,0,0,0,0,0,0,0,0,0,0,0,0,0
8490B5530801,Knock Airport,53.91406566,-8.81263954,Knock Airport,County_Mayo,0,0,0,0,0,0,0,0,0,18:40:00,0,0,0,0,0,0,0,0,0,0,0,0,0,0,0,0,0,0,0,0,0,0,0,0,0,0,0,0,0,0,0,0,0,0,0
8490B141641,Market Square,53.96396871,-8.794865239,Charlestown-Bellahy,County_Mayo,0,0,0,0,0,0,0,0,0,18:50:00,0,0,0,0,0,0,0,0,0,0,0,0,0,0,0,0,0,0,0,0,0,0,0,0,0,0,0,0,0,0,0,0,0,0,0
8490B5530801,Knock Airport,53.91406566,-8.81263954,Knock Airport,County_Mayo,0,0,0,0,0,0,0,0,0,19:00:00,0,0,0,0,0,0,0,0,0,0,0,0,0,0,0,0,0,0,0,0,0,0,0,0,0,0,0,0,0,0,0,0,0,0,0
846000192,Galway Cathedral,53.27527019,-9.058258628,Galway city and suburbs,County_Galway,09:00:00,0,0,0,0,0,0,0,0,0,0,0,0,0,0,0,0,0,0,0,0,0,0,0,0,0,0,0,0,0,0,0,0,0,0,0,0,0,0,0,0,0,0,0,0
847000118,Level Crossing,53.51396854,-8.856816613,Tuam,County_Galway,09:25:00,0,0,0,0,0,0,0,0,0,0,0,0,0,0,0,0,0,0,0,0,0,0,0,0,0,0,0,0,0,0,0,0,0,0,0,0,0,0,0,0,0,0,0,0
849000355,The Square,53.71981748,-8.998796407,Claremorris,County_Mayo,09:50:00,0,0,0,0,0,0,0,0,0,0,0,0,0,0,0,0,0,0,0,0,0,0,0,0,0,0,0,0,0,0,0,0,0,0,0,0,0,0,0,0,0,0,0,0
849000298,Lennons Cafe,53.79548976,-8.918462017,Knock,County_Mayo,10:00:00,0,0,0,0,0,0,0,0,0,0,0,0,0,0,0,0,0,0,0,0,0,0,0,0,0,0,0,0,0,0,0,0,0,0,0,0,0,0,0,0,0,0,0,0
849000073,Sligo Road,53.96497101,-8.795493907,Charlestown-Bellahy,County_Mayo,10:20:00,0,0,0,0,0,0,0,0,0,0,0,0,0,0,0,0,0,0,0,0,0,0,0,0,0,0,0,0,0,0,0,0,0,0,0,0,0,0,0,0,0,0,0,0
851000082,Circular Road,54.05228823,-8.73501987,Tubbercurry,County_Sligo,10:30:00,0,0,0,0,0,0,0,0,0,0,0,0,0,0,0,0,0,0,0,0,0,0,0,0,0,0,0,0,0,0,0,0,0,0,0,0,0,0,0,0,0,0,0,0
8510PB002825,Ballinacarrow,54.13407301,-8.560833001,Ballinacarrow,County_Sligo,10:40:00,0,0,0,0,0,0,0,0,0,0,0,0,0,0,0,0,0,0,0,0,0,0,0,0,0,0,0,0,0,0,0,0,0,0,0,0,0,0,0,0,0,0,0,0
851000016,Hawthorn Court,54.18198753,-8.48591071,Collooney,County_Sligo,10:45:00,0,0,0,0,0,0,0,0,0,0,0,0,0,0,0,0,0,0,0,0,0,0,0,0,0,0,0,0,0,0,0,0,0,0,0,0,0,0,0,0,0,0,0,0
851000001,Markievicz Road,54.27279054,-8.473989627,Sligo,County_Sligo,11:15:00,0,0,0,0,0,0,0,0,0,0,0,0,0,0,0,0,0,0,0,0,0,0,0,0,0,0,0,0,0,0,0,0,0,0,0,0,0,0,0,0,0,0,0,0
851000008,Grange,54.393146,-8.523263,Grange,County_Sligo,11:25:00,0,0,0,0,0,0,0,0,0,0,0,0,0,0,0,0,0,0,0,0,0,0,0,0,0,0,0,0,0,0,0,0,0,0,0,0,0,0,0,0,0,0,0,0
853000100,Bundoran Centre,54.47789538,-8.280247146,Bundoran,County_Donegal,11:40:00,0,0,0,0,0,0,0,0,0,0,0,0,0,0,0,0,0,0,0,0,0,0,0,0,0,0,0,0,0,0,0,0,0,0,0,0,0,0,0,0,0,0,0,0
853000115,Ballyshannon,54.500992,-8.189952,Ballyshannon,County_Donegal,11:45:00,0,0,0,0,0,0,0,0,0,0,0,0,0,0,0,0,0,0,0,0,0,0,0,0,0,0,0,0,0,0,0,0,0,0,0,0,0,0,0,0,0,0,0,0
853000377,Opposite Garda Station,54.65267752,-8.111336492,Donegal,County_Donegal,12:05:00,0,0,0,0,0,0,0,0,0,0,0,0,0,0,0,0,0,0,0,0,0,0,0,0,0,0,0,0,0,0,0,0,0,0,0,0,0,0,0,0,0,0,0,0
853000076,Ballybofey,54.800148,-7.778756,Ballybofey-Stranorlar,County_Donegal,12:30:00,0,0,0,0,0,0,0,0,0,0,0,0,0,0,0,0,0,0,0,0,0,0,0,0,0,0,0,0,0,0,0,0,0,0,0,0,0,0,0,0,0,0,0,0
8530LL10831,Letterkenny Bus Station,54.95414234,-7.728641489,Letterkenny,County_Donegal,12:50:00,0,0,0,0,0,0,0,0,0,0,0,0,0,0,0,0,0,0,0,0,0,0,0,0,0,0,0,0,0,0,0,0,0,0,0,0,0,0,0,0,0,0,0,0
853000087,Kilmacrennan PO,55.02965903,-7.778463717,Kilmacrennan,County_Donegal,13:00:00,0,0,0,0,0,0,0,0,0,0,0,0,0,0,0,0,0,0,0,0,0,0,0,0,0,0,0,0,0,0,0,0,0,0,0,0,0,0,0,0,0,0,0,0
853000083,Creeslough,55.12118559,-7.905407798,Creeslough,County_Donegal,13:15:00,0,0,0,0,0,0,0,0,0,0,0,0,0,0,0,0,0,0,0,0,0,0,0,0,0,0,0,0,0,0,0,0,0,0,0,0,0,0,0,0,0,0,0,0
853000080,Dunfanaghy,55.18325504,-7.971691299,Dunfanaghy,County_Donegal,13:25:00,0,0,0,0,0,0,0,0,0,0,0,0,0,0,0,0,0,0,0,0,0,0,0,0,0,0,0,0,0,0,0,0,0,0,0,0,0,0,0,0,0,0,0,0
853000378,Public Phone Box,55.13638738,-8.105041321,An Fál Carrach,County_Donegal,13:40:00,0,0,0,0,0,0,0,0,0,0,0,0,0,0,0,0,0,0,0,0,0,0,0,0,0,0,0,0,0,0,0,0,0,0,0,0,0,0,0,0,0,0,0,0
8530PB000300,Gortahork,55.12152693,-8.133126276,Gort An Choirce,County_Donegal,13:45:00,0,0,0,0,0,0,0,0,0,0,0,0,0,0,0,0,0,0,0,0,0,0,0,0,0,0,0,0,0,0,0,0,0,0,0,0,0,0,0,0,0,0,0,0
853000379,Mollys Supermarket,55.07877753,-8.289631079,An Bun Beag-Doirí Beaga,County_Donegal,14:05:00,0,0,0,0,0,0,0,0,0,0,0,0,0,0,0,0,0,0,0,0,0,0,0,0,0,0,0,0,0,0,0,0,0,0,0,0,0,0,0,0,0,0,0,0
853000380,Bunbeg Crossroads,55.061177,-8.300805561,An Bun Beag-Doirí Beaga,County_Donegal,14:07:00,0,0,0,0,0,0,0,0,0,0,0,0,0,0,0,0,0,0,0,0,0,0,0,0,0,0,0,0,0,0,0,0,0,0,0,0,0,0,0,0,0,0,0,0
853000116,Crolly,55.02381756,-8.26296189,N56,County_Donegal,14:15:00,0,0,0,0,0,0,0,0,0,0,0,0,0,0,0,0,0,0,0,0,0,0,0,0,0,0,0,0,0,0,0,0,0,0,0,0,0,0,0,0,0,0,0,0
853000377,Opposite Garda Station,54.65267752,-8.111336492,Donegal,County_Donegal,0,0,0,0,0,0,0,0,0,0,19:05:00,0,0,0,0,0,0,0,0,0,0,0,0,0,0,0,0,0,0,0,0,0,0,0,0,0,0,0,0,0,0,0,0,0,0
853000112,Bayview Hotel,54.63655819,-8.441918352,Killybegs,County_Donegal,0,0,0,0,0,0,0,0,0,0,19:45:00,0,0,0,0,0,0,0,0,0,0,0,0,0,0,0,0,0,0,0,0,0,0,0,0,0,0,0,0,0,0,0,0,0,0
853000111,Ardara,54.76198074,-8.413544782,Ardara,County_Donegal,0,0,0,0,0,0,0,0,0,0,20:05:00,0,0,0,0,0,0,0,0,0,0,0,0,0,0,0,0,0,0,0,0,0,0,0,0,0,0,0,0,0,0,0,0,0,0
8530B141391,Glenties,54.79514436,-8.281597518,Glenties,County_Donegal,0,0,0,0,0,0,0,0,0,0,20:15:00,0,0,0,0,0,0,0,0,0,0,0,0,0,0,0,0,0,0,0,0,0,0,0,0,0,0,0,0,0,0,0,0,0,0
853000123,Community Hall,54.95046755,-8.358172758,An Clochán Liath,County_Donegal,0,0,0,0,0,0,0,0,0,0,20:45:00,0,0,0,0,0,0,0,0,0,0,0,0,0,0,0,0,0,0,0,0,0,0,0,0,0,0,0,0,0,0,0,0,0,0
853000041,Annagry,55.02203161,-8.318558521,Anagaire,County_Donegal,0,0,0,0,0,0,0,0,0,0,21:00:00,0,0,0,0,0,0,0,0,0,0,0,0,0,0,0,0,0,0,0,0,0,0,0,0,0,0,0,0,0,0,0,0,0,0
846000192,Galway Cathedral,53.27527019,-9.058258628,Galway city and suburbs,County_Galway,0,0,0,0,0,0,0,0,0,0,0,09:00:00,0,0,0,0,0,0,0,0,0,0,0,0,0,0,0,0,0,0,0,0,0,0,0,0,0,0,0,0,0,0,0,0,0
847000118,Level Crossing,53.51396854,-8.856816613,Tuam,County_Galway,0,0,0,0,0,0,0,0,0,0,0,09:25:00,0,0,0,0,0,0,0,0,0,0,0,0,0,0,0,0,0,0,0,0,0,0,0,0,0,0,0,0,0,0,0,0,0
849000355,The Square,53.71981748,-8.998796407,Claremorris,County_Mayo,0,0,0,0,0,0,0,0,0,0,0,09:50:00,0,0,0,0,0,0,0,0,0,0,0,0,0,0,0,0,0,0,0,0,0,0,0,0,0,0,0,0,0,0,0,0,0
849000298,Lennons Cafe,53.79548976,-8.918462017,Knock,County_Mayo,0,0,0,0,0,0,0,0,0,0,0,10:00:00,0,0,0,0,0,0,0,0,0,0,0,0,0,0,0,0,0,0,0,0,0,0,0,0,0,0,0,0,0,0,0,0,0
849000073,Sligo Road,53.96497101,-8.795493907,Charlestown-Bellahy,County_Mayo,0,0,0,0,0,0,0,0,0,0,0,10:20:00,0,0,0,0,0,0,0,0,0,0,0,0,0,0,0,0,0,0,0,0,0,0,0,0,0,0,0,0,0,0,0,0,0
851000082,Circular Road,54.05228823,-8.73501987,Tubbercurry,County_Sligo,0,0,0,0,0,0,0,0,0,0,0,10:30:00,0,0,0,0,0,0,0,0,0,0,0,0,0,0,0,0,0,0,0,0,0,0,0,0,0,0,0,0,0,0,0,0,0
8510PB002825,Ballinacarrow,54.13407301,-8.560833001,Ballinacarrow,County_Sligo,0,0,0,0,0,0,0,0,0,0,0,10:40:00,0,0,0,0,0,0,0,0,0,0,0,0,0,0,0,0,0,0,0,0,0,0,0,0,0,0,0,0,0,0,0,0,0
851000016,Hawthorn Court,54.18198753,-8.48591071,Collooney,County_Sligo,0,0,0,0,0,0,0,0,0,0,0,10:45:00,0,0,0,0,0,0,0,0,0,0,0,0,0,0,0,0,0,0,0,0,0,0,0,0,0,0,0,0,0,0,0,0,0
851000001,Markievicz Road,54.27279054,-8.473989627,Sligo,County_Sligo,0,0,0,0,0,0,0,0,0,0,0,11:15:00,0,0,0,0,0,0,0,0,0,0,0,0,0,0,0,0,0,0,0,0,0,0,0,0,0,0,0,0,0,0,0,0,0
851000008,Grange,54.393146,-8.523263,Grange,County_Sligo,0,0,0,0,0,0,0,0,0,0,0,11:25:00,0,0,0,0,0,0,0,0,0,0,0,0,0,0,0,0,0,0,0,0,0,0,0,0,0,0,0,0,0,0,0,0,0
853000100,Bundoran Centre,54.47789538,-8.280247146,Bundoran,County_Donegal,0,0,0,0,0,0,0,0,0,0,0,11:40:00,0,0,0,0,0,0,0,0,0,0,0,0,0,0,0,0,0,0,0,0,0,0,0,0,0,0,0,0,0,0,0,0,0
853000115,Ballyshannon,54.500992,-8.189952,Ballyshannon,County_Donegal,0,0,0,0,0,0,0,0,0,0,0,11:45:00,0,0,0,0,0,0,0,0,0,0,0,0,0,0,0,0,0,0,0,0,0,0,0,0,0,0,0,0,0,0,0,0,0
853000377,Opposite Garda Station,54.65267752,-8.111336492,Donegal,County_Donegal,0,0,0,0,0,0,0,0,0,0,0,12:05:00,0,0,0,0,0,0,0,0,0,0,0,0,0,0,0,0,0,0,0,0,0,0,0,0,0,0,0,0,0,0,0,0,0
853000076,Ballybofey,54.800148,-7.778756,Ballybofey-Stranorlar,County_Donegal,0,0,0,0,0,0,0,0,0,0,0,12:30:00,0,0,0,0,0,0,0,0,0,0,0,0,0,0,0,0,0,0,0,0,0,0,0,0,0,0,0,0,0,0,0,0,0
8530LL10831,Letterkenny Bus Station,54.95414234,-7.728641489,Letterkenny,County_Donegal,0,0,0,0,0,0,0,0,0,0,0,12:50:00,0,0,0,0,0,0,0,0,0,0,0,0,0,0,0,0,0,0,0,0,0,0,0,0,0,0,0,0,0,0,0,0,0
853000087,Kilmacrennan PO,55.02965903,-7.778463717,Kilmacrennan,County_Donegal,0,0,0,0,0,0,0,0,0,0,0,13:00:00,0,0,0,0,0,0,0,0,0,0,0,0,0,0,0,0,0,0,0,0,0,0,0,0,0,0,0,0,0,0,0,0,0
853000083,Creeslough,55.12118559,-7.905407798,Creeslough,County_Donegal,0,0,0,0,0,0,0,0,0,0,0,13:15:00,0,0,0,0,0,0,0,0,0,0,0,0,0,0,0,0,0,0,0,0,0,0,0,0,0,0,0,0,0,0,0,0,0
853000080,Dunfanaghy,55.18325504,-7.971691299,Dunfanaghy,County_Donegal,0,0,0,0,0,0,0,0,0,0,0,13:25:00,0,0,0,0,0,0,0,0,0,0,0,0,0,0,0,0,0,0,0,0,0,0,0,0,0,0,0,0,0,0,0,0,0
853000378,Public Phone Box,55.13638738,-8.105041321,An Fál Carrach,County_Donegal,0,0,0,0,0,0,0,0,0,0,0,13:40:00,0,0,0,0,0,0,0,0,0,0,0,0,0,0,0,0,0,0,0,0,0,0,0,0,0,0,0,0,0,0,0,0,0
8530PB000300,Gortahork,55.12152693,-8.133126276,Gort An Choirce,County_Donegal,0,0,0,0,0,0,0,0,0,0,0,13:45:00,0,0,0,0,0,0,0,0,0,0,0,0,0,0,0,0,0,0,0,0,0,0,0,0,0,0,0,0,0,0,0,0,0
853000379,Mollys Supermarket,55.07877753,-8.289631079,An Bun Beag-Doirí Beaga,County_Donegal,0,0,0,0,0,0,0,0,0,0,0,14:05:00,0,0,0,0,0,0,0,0,0,0,0,0,0,0,0,0,0,0,0,0,0,0,0,0,0,0,0,0,0,0,0,0,0
853000380,Bunbeg Crossroads,55.061177,-8.300805561,An Bun Beag-Doirí Beaga,County_Donegal,0,0,0,0,0,0,0,0,0,0,0,14:07:00,0,0,0,0,0,0,0,0,0,0,0,0,0,0,0,0,0,0,0,0,0,0,0,0,0,0,0,0,0,0,0,0,0
853000116,Crolly,55.02381756,-8.26296189,N56,County_Donegal,0,0,0,0,0,0,0,0,0,0,0,14:15:00,0,0,0,0,0,0,0,0,0,0,0,0,0,0,0,0,0,0,0,0,0,0,0,0,0,0,0,0,0,0,0,0,0
846000192,Galway Cathedral,53.27527019,-9.058258628,Galway city and suburbs,County_Galway,0,0,0,0,0,0,0,0,0,0,0,09:00:00,0,0,0,0,0,0,0,0,0,0,0,0,0,0,0,0,0,0,0,0,0,0,0,0,0,0,0,0,0,0,0,0,0
847000118,Level Crossing,53.51396854,-8.856816613,Tuam,County_Galway,0,0,0,0,0,0,0,0,0,0,0,09:25:00,0,0,0,0,0,0,0,0,0,0,0,0,0,0,0,0,0,0,0,0,0,0,0,0,0,0,0,0,0,0,0,0,0
849000355,The Square,53.71981748,-8.998796407,Claremorris,County_Mayo,0,0,0,0,0,0,0,0,0,0,0,09:50:00,0,0,0,0,0,0,0,0,0,0,0,0,0,0,0,0,0,0,0,0,0,0,0,0,0,0,0,0,0,0,0,0,0
849000298,Lennons Cafe,53.79548976,-8.918462017,Knock,County_Mayo,0,0,0,0,0,0,0,0,0,0,0,10:00:00,0,0,0,0,0,0,0,0,0,0,0,0,0,0,0,0,0,0,0,0,0,0,0,0,0,0,0,0,0,0,0,0,0
849000073,Sligo Road,53.96497101,-8.795493907,Charlestown-Bellahy,County_Mayo,0,0,0,0,0,0,0,0,0,0,0,10:20:00,0,0,0,0,0,0,0,0,0,0,0,0,0,0,0,0,0,0,0,0,0,0,0,0,0,0,0,0,0,0,0,0,0
851000082,Circular Road,54.05228823,-8.73501987,Tubbercurry,County_Sligo,0,0,0,0,0,0,0,0,0,0,0,10:30:00,0,0,0,0,0,0,0,0,0,0,0,0,0,0,0,0,0,0,0,0,0,0,0,0,0,0,0,0,0,0,0,0,0
8510PB002825,Ballinacarrow,54.13407301,-8.560833001,Ballinacarrow,County_Sligo,0,0,0,0,0,0,0,0,0,0,0,10:40:00,0,0,0,0,0,0,0,0,0,0,0,0,0,0,0,0,0,0,0,0,0,0,0,0,0,0,0,0,0,0,0,0,0
851000016,Hawthorn Court,54.18198753,-8.48591071,Collooney,County_Sligo,0,0,0,0,0,0,0,0,0,0,0,10:45:00,0,0,0,0,0,0,0,0,0,0,0,0,0,0,0,0,0,0,0,0,0,0,0,0,0,0,0,0,0,0,0,0,0
851000001,Markievicz Road,54.27279054,-8.473989627,Sligo,County_Sligo,0,0,0,0,0,0,0,0,0,0,0,11:15:00,0,0,0,0,0,0,0,0,0,0,0,0,0,0,0,0,0,0,0,0,0,0,0,0,0,0,0,0,0,0,0,0,0
851000008,Grange,54.393146,-8.523263,Grange,County_Sligo,0,0,0,0,0,0,0,0,0,0,0,11:25:00,0,0,0,0,0,0,0,0,0,0,0,0,0,0,0,0,0,0,0,0,0,0,0,0,0,0,0,0,0,0,0,0,0
853000100,Bundoran Centre,54.47789538,-8.280247146,Bundoran,County_Donegal,0,0,0,0,0,0,0,0,0,0,0,11:40:00,0,0,0,0,0,0,0,0,0,0,0,0,0,0,0,0,0,0,0,0,0,0,0,0,0,0,0,0,0,0,0,0,0
853000115,Ballyshannon,54.500992,-8.189952,Ballyshannon,County_Donegal,0,0,0,0,0,0,0,0,0,0,0,11:45:00,0,0,0,0,0,0,0,0,0,0,0,0,0,0,0,0,0,0,0,0,0,0,0,0,0,0,0,0,0,0,0,0,0
853000377,Opposite Garda Station,54.65267752,-8.111336492,Donegal,County_Donegal,0,0,0,0,0,0,0,0,0,0,0,12:05:00,0,0,0,0,0,0,0,0,0,0,0,0,0,0,0,0,0,0,0,0,0,0,0,0,0,0,0,0,0,0,0,0,0
853000076,Ballybofey,54.800148,-7.778756,Ballybofey-Stranorlar,County_Donegal,0,0,0,0,0,0,0,0,0,0,0,12:30:00,0,0,0,0,0,0,0,0,0,0,0,0,0,0,0,0,0,0,0,0,0,0,0,0,0,0,0,0,0,0,0,0,0
8530LL10831,Letterkenny Bus Station,54.95414234,-7.728641489,Letterkenny,County_Donegal,0,0,0,0,0,0,0,0,0,0,0,12:50:00,0,0,0,0,0,0,0,0,0,0,0,0,0,0,0,0,0,0,0,0,0,0,0,0,0,0,0,0,0,0,0,0,0
853000087,Kilmacrennan PO,55.02965903,-7.778463717,Kilmacrennan,County_Donegal,0,0,0,0,0,0,0,0,0,0,0,13:00:00,0,0,0,0,0,0,0,0,0,0,0,0,0,0,0,0,0,0,0,0,0,0,0,0,0,0,0,0,0,0,0,0,0
853000083,Creeslough,55.12118559,-7.905407798,Creeslough,County_Donegal,0,0,0,0,0,0,0,0,0,0,0,13:15:00,0,0,0,0,0,0,0,0,0,0,0,0,0,0,0,0,0,0,0,0,0,0,0,0,0,0,0,0,0,0,0,0,0
853000080,Dunfanaghy,55.18325504,-7.971691299,Dunfanaghy,County_Donegal,0,0,0,0,0,0,0,0,0,0,0,13:25:00,0,0,0,0,0,0,0,0,0,0,0,0,0,0,0,0,0,0,0,0,0,0,0,0,0,0,0,0,0,0,0,0,0
853000378,Public Phone Box,55.13638738,-8.105041321,An Fál Carrach,County_Donegal,0,0,0,0,0,0,0,0,0,0,0,13:40:00,0,0,0,0,0,0,0,0,0,0,0,0,0,0,0,0,0,0,0,0,0,0,0,0,0,0,0,0,0,0,0,0,0
8530PB000300,Gortahork,55.12152693,-8.133126276,Gort An Choirce,County_Donegal,0,0,0,0,0,0,0,0,0,0,0,13:45:00,0,0,0,0,0,0,0,0,0,0,0,0,0,0,0,0,0,0,0,0,0,0,0,0,0,0,0,0,0,0,0,0,0
853000379,Mollys Supermarket,55.07877753,-8.289631079,An Bun Beag-Doirí Beaga,County_Donegal,0,0,0,0,0,0,0,0,0,0,0,14:05:00,0,0,0,0,0,0,0,0,0,0,0,0,0,0,0,0,0,0,0,0,0,0,0,0,0,0,0,0,0,0,0,0,0
853000380,Bunbeg Crossroads,55.061177,-8.300805561,An Bun Beag-Doirí Beaga,County_Donegal,0,0,0,0,0,0,0,0,0,0,0,14:07:00,0,0,0,0,0,0,0,0,0,0,0,0,0,0,0,0,0,0,0,0,0,0,0,0,0,0,0,0,0,0,0,0,0
853000116,Crolly,55.02381756,-8.26296189,N56,County_Donegal,0,0,0,0,0,0,0,0,0,0,0,14:15:00,0,0,0,0,0,0,0,0,0,0,0,0,0,0,0,0,0,0,0,0,0,0,0,0,0,0,0,0,0,0,0,0,0
8530LL10831,Letterkenny Bus Station,54.95414234,-7.728641489,Letterkenny,County_Donegal,0,0,0,0,0,0,0,0,0,0,0,0,19:50:00,0,0,0,0,0,0,0,0,0,0,0,0,0,0,0,0,0,0,0,0,0,0,0,0,0,0,0,0,0,0,0,0
853000128,Kernans Shop,54.99832105,-7.515261553,Kernans Shop,County_Donegal,0,0,0,0,0,0,0,0,0,0,0,0,20:05:00,0,0,0,0,0,0,0,0,0,0,0,0,0,0,0,0,0,0,0,0,0,0,0,0,0,0,0,0,0,0,0,0
853000119,Callaghans,55.0319195,-7.454916393,Callaghans,County_Donegal,0,0,0,0,0,0,0,0,0,0,0,0,20:10:00,0,0,0,0,0,0,0,0,0,0,0,0,0,0,0,0,0,0,0,0,0,0,0,0,0,0,0,0,0,0,0,0
853000108,SuperValu,55.13791328,-7.455841149,Buncrana,County_Donegal,0,0,0,0,0,0,0,0,0,0,0,0,20:30:00,0,0,0,0,0,0,0,0,0,0,0,0,0,0,0,0,0,0,0,0,0,0,0,0,0,0,0,0,0,0,0,0
849000072,Supervalu,55.25234964,-7.258569558,Carndonagh,County_Donegal,0,0,0,0,0,0,0,0,0,0,0,0,20:50:00,0,0,0,0,0,0,0,0,0,0,0,0,0,0,0,0,0,0,0,0,0,0,0,0,0,0,0,0,0,0,0,0
846000192,Galway Cathedral,53.27527019,-9.058258628,Galway city and suburbs,County_Galway,0,0,0,0,0,0,0,0,0,0,0,09:00:00,0,0,0,0,0,0,0,0,0,0,0,0,0,0,0,0,0,0,0,0,0,0,0,0,0,0,0,0,0,0,0,0,0
847000118,Level Crossing,53.51396854,-8.856816613,Tuam,County_Galway,0,0,0,0,0,0,0,0,0,0,0,09:25:00,0,0,0,0,0,0,0,0,0,0,0,0,0,0,0,0,0,0,0,0,0,0,0,0,0,0,0,0,0,0,0,0,0
849000355,The Square,53.71981748,-8.998796407,Claremorris,County_Mayo,0,0,0,0,0,0,0,0,0,0,0,09:50:00,0,0,0,0,0,0,0,0,0,0,0,0,0,0,0,0,0,0,0,0,0,0,0,0,0,0,0,0,0,0,0,0,0
849000298,Lennons Cafe,53.79548976,-8.918462017,Knock,County_Mayo,0,0,0,0,0,0,0,0,0,0,0,10:00:00,0,0,0,0,0,0,0,0,0,0,0,0,0,0,0,0,0,0,0,0,0,0,0,0,0,0,0,0,0,0,0,0,0
849000073,Sligo Road,53.96497101,-8.795493907,Charlestown-Bellahy,County_Mayo,0,0,0,0,0,0,0,0,0,0,0,10:20:00,0,0,0,0,0,0,0,0,0,0,0,0,0,0,0,0,0,0,0,0,0,0,0,0,0,0,0,0,0,0,0,0,0
851000082,Circular Road,54.05228823,-8.73501987,Tubbercurry,County_Sligo,0,0,0,0,0,0,0,0,0,0,0,10:30:00,0,0,0,0,0,0,0,0,0,0,0,0,0,0,0,0,0,0,0,0,0,0,0,0,0,0,0,0,0,0,0,0,0
8510PB002825,Ballinacarrow,54.13407301,-8.560833001,Ballinacarrow,County_Sligo,0,0,0,0,0,0,0,0,0,0,0,10:40:00,0,0,0,0,0,0,0,0,0,0,0,0,0,0,0,0,0,0,0,0,0,0,0,0,0,0,0,0,0,0,0,0,0
851000016,Hawthorn Court,54.18198753,-8.48591071,Collooney,County_Sligo,0,0,0,0,0,0,0,0,0,0,0,10:45:00,0,0,0,0,0,0,0,0,0,0,0,0,0,0,0,0,0,0,0,0,0,0,0,0,0,0,0,0,0,0,0,0,0
851000001,Markievicz Road,54.27279054,-8.473989627,Sligo,County_Sligo,0,0,0,0,0,0,0,0,0,0,0,11:15:00,0,0,0,0,0,0,0,0,0,0,0,0,0,0,0,0,0,0,0,0,0,0,0,0,0,0,0,0,0,0,0,0,0
851000008,Grange,54.393146,-8.523263,Grange,County_Sligo,0,0,0,0,0,0,0,0,0,0,0,11:25:00,0,0,0,0,0,0,0,0,0,0,0,0,0,0,0,0,0,0,0,0,0,0,0,0,0,0,0,0,0,0,0,0,0
853000100,Bundoran Centre,54.47789538,-8.280247146,Bundoran,County_Donegal,0,0,0,0,0,0,0,0,0,0,0,11:40:00,0,0,0,0,0,0,0,0,0,0,0,0,0,0,0,0,0,0,0,0,0,0,0,0,0,0,0,0,0,0,0,0,0
853000115,Ballyshannon,54.500992,-8.189952,Ballyshannon,County_Donegal,0,0,0,0,0,0,0,0,0,0,0,11:45:00,0,0,0,0,0,0,0,0,0,0,0,0,0,0,0,0,0,0,0,0,0,0,0,0,0,0,0,0,0,0,0,0,0
853000377,Opposite Garda Station,54.65267752,-8.111336492,Donegal,County_Donegal,0,0,0,0,0,0,0,0,0,0,0,12:05:00,0,0,0,0,0,0,0,0,0,0,0,0,0,0,0,0,0,0,0,0,0,0,0,0,0,0,0,0,0,0,0,0,0
853000076,Ballybofey,54.800148,-7.778756,Ballybofey-Stranorlar,County_Donegal,0,0,0,0,0,0,0,0,0,0,0,12:30:00,0,0,0,0,0,0,0,0,0,0,0,0,0,0,0,0,0,0,0,0,0,0,0,0,0,0,0,0,0,0,0,0,0
8530LL10831,Letterkenny Bus Station,54.95414234,-7.728641489,Letterkenny,County_Donegal,0,0,0,0,0,0,0,0,0,0,0,12:50:00,0,0,0,0,0,0,0,0,0,0,0,0,0,0,0,0,0,0,0,0,0,0,0,0,0,0,0,0,0,0,0,0,0
853000087,Kilmacrennan PO,55.02965903,-7.778463717,Kilmacrennan,County_Donegal,0,0,0,0,0,0,0,0,0,0,0,13:00:00,0,0,0,0,0,0,0,0,0,0,0,0,0,0,0,0,0,0,0,0,0,0,0,0,0,0,0,0,0,0,0,0,0
853000083,Creeslough,55.12118559,-7.905407798,Creeslough,County_Donegal,0,0,0,0,0,0,0,0,0,0,0,13:15:00,0,0,0,0,0,0,0,0,0,0,0,0,0,0,0,0,0,0,0,0,0,0,0,0,0,0,0,0,0,0,0,0,0
853000080,Dunfanaghy,55.18325504,-7.971691299,Dunfanaghy,County_Donegal,0,0,0,0,0,0,0,0,0,0,0,13:25:00,0,0,0,0,0,0,0,0,0,0,0,0,0,0,0,0,0,0,0,0,0,0,0,0,0,0,0,0,0,0,0,0,0
853000378,Public Phone Box,55.13638738,-8.105041321,An Fál Carrach,County_Donegal,0,0,0,0,0,0,0,0,0,0,0,13:40:00,0,0,0,0,0,0,0,0,0,0,0,0,0,0,0,0,0,0,0,0,0,0,0,0,0,0,0,0,0,0,0,0,0
8530PB000300,Gortahork,55.12152693,-8.133126276,Gort An Choirce,County_Donegal,0,0,0,0,0,0,0,0,0,0,0,13:45:00,0,0,0,0,0,0,0,0,0,0,0,0,0,0,0,0,0,0,0,0,0,0,0,0,0,0,0,0,0,0,0,0,0
853000379,Mollys Supermarket,55.07877753,-8.289631079,An Bun Beag-Doirí Beaga,County_Donegal,0,0,0,0,0,0,0,0,0,0,0,14:05:00,0,0,0,0,0,0,0,0,0,0,0,0,0,0,0,0,0,0,0,0,0,0,0,0,0,0,0,0,0,0,0,0,0
853000380,Bunbeg Crossroads,55.061177,-8.300805561,An Bun Beag-Doirí Beaga,County_Donegal,0,0,0,0,0,0,0,0,0,0,0,14:07:00,0,0,0,0,0,0,0,0,0,0,0,0,0,0,0,0,0,0,0,0,0,0,0,0,0,0,0,0,0,0,0,0,0
853000116,Crolly,55.02381756,-8.26296189,N56,County_Donegal,0,0,0,0,0,0,0,0,0,0,0,14:15:00,0,0,0,0,0,0,0,0,0,0,0,0,0,0,0,0,0,0,0,0,0,0,0,0,0,0,0,0,0,0,0,0,0
846000192,Galway Cathedral,53.27527019,-9.058258628,Galway city and suburbs,County_Galway,0,0,0,0,0,0,0,0,0,0,0,0,0,20:00:00,0,0,0,0,0,0,0,0,0,0,0,0,0,0,0,0,0,0,0,0,0,0,0,0,0,0,0,0,0,0,0
847000118,Level Crossing,53.51396854,-8.856816613,Tuam,County_Galway,0,0,0,0,0,0,0,0,0,0,0,0,0,20:25:00,0,0,0,0,0,0,0,0,0,0,0,0,0,0,0,0,0,0,0,0,0,0,0,0,0,0,0,0,0,0,0
849000355,The Square,53.71981748,-8.998796407,Claremorris,County_Mayo,0,0,0,0,0,0,0,0,0,0,0,0,0,20:50:00,0,0,0,0,0,0,0,0,0,0,0,0,0,0,0,0,0,0,0,0,0,0,0,0,0,0,0,0,0,0,0
849000298,Lennons Cafe,53.79548976,-8.918462017,Knock,County_Mayo,0,0,0,0,0,0,0,0,0,0,0,0,0,21:00:00,0,0,0,0,0,0,0,0,0,0,0,0,0,0,0,0,0,0,0,0,0,0,0,0,0,0,0,0,0,0,0
849000073,Sligo Road,53.96497101,-8.795493907,Charlestown-Bellahy,County_Mayo,0,0,0,0,0,0,0,0,0,0,0,0,0,21:20:00,0,0,0,0,0,0,0,0,0,0,0,0,0,0,0,0,0,0,0,0,0,0,0,0,0,0,0,0,0,0,0
851000082,Circular Road,54.05228823,-8.73501987,Tubbercurry,County_Sligo,0,0,0,0,0,0,0,0,0,0,0,0,0,21:30:00,0,0,0,0,0,0,0,0,0,0,0,0,0,0,0,0,0,0,0,0,0,0,0,0,0,0,0,0,0,0,0
8510PB002825,Ballinacarrow,54.13407301,-8.560833001,Ballinacarrow,County_Sligo,0,0,0,0,0,0,0,0,0,0,0,0,0,21:40:00,0,0,0,0,0,0,0,0,0,0,0,0,0,0,0,0,0,0,0,0,0,0,0,0,0,0,0,0,0,0,0
851000016,Hawthorn Court,54.18198753,-8.48591071,Collooney,County_Sligo,0,0,0,0,0,0,0,0,0,0,0,0,0,21:45:00,0,0,0,0,0,0,0,0,0,0,0,0,0,0,0,0,0,0,0,0,0,0,0,0,0,0,0,0,0,0,0
851000001,Markievicz Road,54.27279054,-8.473989627,Sligo,County_Sligo,0,0,0,0,0,0,0,0,0,0,0,0,0,22:15:00,0,0,0,0,0,0,0,0,0,0,0,0,0,0,0,0,0,0,0,0,0,0,0,0,0,0,0,0,0,0,0
851000034,ATU Sligo Campus,54.2764684,-8.461702285,Sligo,County_Sligo,0,0,0,0,0,0,0,0,0,0,0,0,0,22:18:00,0,0,0,0,0,0,0,0,0,0,0,0,0,0,0,0,0,0,0,0,0,0,0,0,0,0,0,0,0,0,0
851000008,Grange,54.393146,-8.523263,Grange,County_Sligo,0,0,0,0,0,0,0,0,0,0,0,0,0,22:25:00,0,0,0,0,0,0,0,0,0,0,0,0,0,0,0,0,0,0,0,0,0,0,0,0,0,0,0,0,0,0,0
853000100,Bundoran Centre,54.47789538,-8.280247146,Bundoran,County_Donegal,0,0,0,0,0,0,0,0,0,0,0,0,0,22:40:00,0,0,0,0,0,0,0,0,0,0,0,0,0,0,0,0,0,0,0,0,0,0,0,0,0,0,0,0,0,0,0
853000115,Ballyshannon,54.500992,-8.189952,Ballyshannon,County_Donegal,0,0,0,0,0,0,0,0,0,0,0,0,0,22:45:00,0,0,0,0,0,0,0,0,0,0,0,0,0,0,0,0,0,0,0,0,0,0,0,0,0,0,0,0,0,0,0
853000377,Opposite Garda Station,54.65267752,-8.111336492,Donegal,County_Donegal,0,0,0,0,0,0,0,0,0,0,0,0,0,23:05:00,0,0,0,0,0,0,0,0,0,0,0,0,0,0,0,0,0,0,0,0,0,0,0,0,0,0,0,0,0,0,0
853000076,Ballybofey,54.800148,-7.778756,Ballybofey-Stranorlar,County_Donegal,0,0,0,0,0,0,0,0,0,0,0,0,0,23:30:00,0,0,0,0,0,0,0,0,0,0,0,0,0,0,0,0,0,0,0,0,0,0,0,0,0,0,0,0,0,0,0
8530LL10831,Letterkenny Bus Station,54.95414234,-7.728641489,Letterkenny,County_Donegal,0,0,0,0,0,0,0,0,0,0,0,0,0,23:50:00,0,0,0,0,0,0,0,0,0,0,0,0,0,0,0,0,0,0,0,0,0,0,0,0,0,0,0,0,0,0,0
853000087,Kilmacrennan PO,55.02965903,-7.778463717,Kilmacrennan,County_Donegal,0,0,0,0,0,0,0,0,0,0,0,0,0,24:00:00,0,0,0,0,0,0,0,0,0,0,0,0,0,0,0,0,0,0,0,0,0,0,0,0,0,0,0,0,0,0,0
853000083,Creeslough,55.12118559,-7.905407798,Creeslough,County_Donegal,0,0,0,0,0,0,0,0,0,0,0,0,0,24:15:00,0,0,0,0,0,0,0,0,0,0,0,0,0,0,0,0,0,0,0,0,0,0,0,0,0,0,0,0,0,0,0
853000080,Dunfanaghy,55.18325504,-7.971691299,Dunfanaghy,County_Donegal,0,0,0,0,0,0,0,0,0,0,0,0,0,24:25:00,0,0,0,0,0,0,0,0,0,0,0,0,0,0,0,0,0,0,0,0,0,0,0,0,0,0,0,0,0,0,0
853000378,Public Phone Box,55.13638738,-8.105041321,An Fál Carrach,County_Donegal,0,0,0,0,0,0,0,0,0,0,0,0,0,24:40:00,0,0,0,0,0,0,0,0,0,0,0,0,0,0,0,0,0,0,0,0,0,0,0,0,0,0,0,0,0,0,0
8530PB000300,Gortahork,55.12152693,-8.133126276,Gort An Choirce,County_Donegal,0,0,0,0,0,0,0,0,0,0,0,0,0,24:45:00,0,0,0,0,0,0,0,0,0,0,0,0,0,0,0,0,0,0,0,0,0,0,0,0,0,0,0,0,0,0,0
853000379,Mollys Supermarket,55.07877753,-8.289631079,An Bun Beag-Doirí Beaga,County_Donegal,0,0,0,0,0,0,0,0,0,0,0,0,0,25:05:00,0,0,0,0,0,0,0,0,0,0,0,0,0,0,0,0,0,0,0,0,0,0,0,0,0,0,0,0,0,0,0
853000380,Bunbeg Crossroads,55.061177,-8.300805561,An Bun Beag-Doirí Beaga,County_Donegal,0,0,0,0,0,0,0,0,0,0,0,0,0,25:07:00,0,0,0,0,0,0,0,0,0,0,0,0,0,0,0,0,0,0,0,0,0,0,0,0,0,0,0,0,0,0,0
853000116,Crolly,55.02381756,-8.26296189,N56,County_Donegal,0,0,0,0,0,0,0,0,0,0,0,0,0,25:15:00,0,0,0,0,0,0,0,0,0,0,0,0,0,0,0,0,0,0,0,0,0,0,0,0,0,0,0,0,0,0,0
846000192,Galway Cathedral,53.27527019,-9.058258628,Galway city and suburbs,County_Galway,0,0,0,0,0,0,0,0,0,0,0,09:00:00,0,0,0,0,0,0,0,0,0,0,0,0,0,0,0,0,0,0,0,0,0,0,0,0,0,0,0,0,0,0,0,0,0
847000118,Level Crossing,53.51396854,-8.856816613,Tuam,County_Galway,0,0,0,0,0,0,0,0,0,0,0,09:25:00,0,0,0,0,0,0,0,0,0,0,0,0,0,0,0,0,0,0,0,0,0,0,0,0,0,0,0,0,0,0,0,0,0
849000355,The Square,53.71981748,-8.998796407,Claremorris,County_Mayo,0,0,0,0,0,0,0,0,0,0,0,09:50:00,0,0,0,0,0,0,0,0,0,0,0,0,0,0,0,0,0,0,0,0,0,0,0,0,0,0,0,0,0,0,0,0,0
849000298,Lennons Cafe,53.79548976,-8.918462017,Knock,County_Mayo,0,0,0,0,0,0,0,0,0,0,0,10:00:00,0,0,0,0,0,0,0,0,0,0,0,0,0,0,0,0,0,0,0,0,0,0,0,0,0,0,0,0,0,0,0,0,0
849000073,Sligo Road,53.96497101,-8.795493907,Charlestown-Bellahy,County_Mayo,0,0,0,0,0,0,0,0,0,0,0,10:20:00,0,0,0,0,0,0,0,0,0,0,0,0,0,0,0,0,0,0,0,0,0,0,0,0,0,0,0,0,0,0,0,0,0
851000082,Circular Road,54.05228823,-8.73501987,Tubbercurry,County_Sligo,0,0,0,0,0,0,0,0,0,0,0,10:30:00,0,0,0,0,0,0,0,0,0,0,0,0,0,0,0,0,0,0,0,0,0,0,0,0,0,0,0,0,0,0,0,0,0
8510PB002825,Ballinacarrow,54.13407301,-8.560833001,Ballinacarrow,County_Sligo,0,0,0,0,0,0,0,0,0,0,0,10:40:00,0,0,0,0,0,0,0,0,0,0,0,0,0,0,0,0,0,0,0,0,0,0,0,0,0,0,0,0,0,0,0,0,0
851000016,Hawthorn Court,54.18198753,-8.48591071,Collooney,County_Sligo,0,0,0,0,0,0,0,0,0,0,0,10:45:00,0,0,0,0,0,0,0,0,0,0,0,0,0,0,0,0,0,0,0,0,0,0,0,0,0,0,0,0,0,0,0,0,0
851000001,Markievicz Road,54.27279054,-8.473989627,Sligo,County_Sligo,0,0,0,0,0,0,0,0,0,0,0,11:15:00,0,0,0,0,0,0,0,0,0,0,0,0,0,0,0,0,0,0,0,0,0,0,0,0,0,0,0,0,0,0,0,0,0
851000008,Grange,54.393146,-8.523263,Grange,County_Sligo,0,0,0,0,0,0,0,0,0,0,0,11:25:00,0,0,0,0,0,0,0,0,0,0,0,0,0,0,0,0,0,0,0,0,0,0,0,0,0,0,0,0,0,0,0,0,0
853000100,Bundoran Centre,54.47789538,-8.280247146,Bundoran,County_Donegal,0,0,0,0,0,0,0,0,0,0,0,11:40:00,0,0,0,0,0,0,0,0,0,0,0,0,0,0,0,0,0,0,0,0,0,0,0,0,0,0,0,0,0,0,0,0,0
853000115,Ballyshannon,54.500992,-8.189952,Ballyshannon,County_Donegal,0,0,0,0,0,0,0,0,0,0,0,11:45:00,0,0,0,0,0,0,0,0,0,0,0,0,0,0,0,0,0,0,0,0,0,0,0,0,0,0,0,0,0,0,0,0,0
853000377,Opposite Garda Station,54.65267752,-8.111336492,Donegal,County_Donegal,0,0,0,0,0,0,0,0,0,0,0,12:05:00,0,0,0,0,0,0,0,0,0,0,0,0,0,0,0,0,0,0,0,0,0,0,0,0,0,0,0,0,0,0,0,0,0
853000076,Ballybofey,54.800148,-7.778756,Ballybofey-Stranorlar,County_Donegal,0,0,0,0,0,0,0,0,0,0,0,12:30:00,0,0,0,0,0,0,0,0,0,0,0,0,0,0,0,0,0,0,0,0,0,0,0,0,0,0,0,0,0,0,0,0,0
8530LL10831,Letterkenny Bus Station,54.95414234,-7.728641489,Letterkenny,County_Donegal,0,0,0,0,0,0,0,0,0,0,0,12:50:00,0,0,0,0,0,0,0,0,0,0,0,0,0,0,0,0,0,0,0,0,0,0,0,0,0,0,0,0,0,0,0,0,0
853000087,Kilmacrennan PO,55.02965903,-7.778463717,Kilmacrennan,County_Donegal,0,0,0,0,0,0,0,0,0,0,0,13:00:00,0,0,0,0,0,0,0,0,0,0,0,0,0,0,0,0,0,0,0,0,0,0,0,0,0,0,0,0,0,0,0,0,0
853000083,Creeslough,55.12118559,-7.905407798,Creeslough,County_Donegal,0,0,0,0,0,0,0,0,0,0,0,13:15:00,0,0,0,0,0,0,0,0,0,0,0,0,0,0,0,0,0,0,0,0,0,0,0,0,0,0,0,0,0,0,0,0,0
853000080,Dunfanaghy,55.18325504,-7.971691299,Dunfanaghy,County_Donegal,0,0,0,0,0,0,0,0,0,0,0,13:25:00,0,0,0,0,0,0,0,0,0,0,0,0,0,0,0,0,0,0,0,0,0,0,0,0,0,0,0,0,0,0,0,0,0
853000378,Public Phone Box,55.13638738,-8.105041321,An Fál Carrach,County_Donegal,0,0,0,0,0,0,0,0,0,0,0,13:40:00,0,0,0,0,0,0,0,0,0,0,0,0,0,0,0,0,0,0,0,0,0,0,0,0,0,0,0,0,0,0,0,0,0
8530PB000300,Gortahork,55.12152693,-8.133126276,Gort An Choirce,County_Donegal,0,0,0,0,0,0,0,0,0,0,0,13:45:00,0,0,0,0,0,0,0,0,0,0,0,0,0,0,0,0,0,0,0,0,0,0,0,0,0,0,0,0,0,0,0,0,0
853000379,Mollys Supermarket,55.07877753,-8.289631079,An Bun Beag-Doirí Beaga,County_Donegal,0,0,0,0,0,0,0,0,0,0,0,14:05:00,0,0,0,0,0,0,0,0,0,0,0,0,0,0,0,0,0,0,0,0,0,0,0,0,0,0,0,0,0,0,0,0,0
853000380,Bunbeg Crossroads,55.061177,-8.300805561,An Bun Beag-Doirí Beaga,County_Donegal,0,0,0,0,0,0,0,0,0,0,0,14:07:00,0,0,0,0,0,0,0,0,0,0,0,0,0,0,0,0,0,0,0,0,0,0,0,0,0,0,0,0,0,0,0,0,0
853000116,Crolly,55.02381756,-8.26296189,N56,County_Donegal,0,0,0,0,0,0,0,0,0,0,0,14:15:00,0,0,0,0,0,0,0,0,0,0,0,0,0,0,0,0,0,0,0,0,0,0,0,0,0,0,0,0,0,0,0,0,0
853000377,Opposite Garda Station,54.65267752,-8.111336492,Donegal,County_Donegal,0,0,0,0,0,0,0,0,0,0,0,0,0,0,20:50:00,0,0,0,0,0,0,0,0,0,0,0,0,0,0,0,0,0,0,0,0,0,0,0,0,0,0,0,0,0,0
853000112,Bayview Hotel,54.63655819,-8.441918352,Killybegs,County_Donegal,0,0,0,0,0,0,0,0,0,0,0,0,0,0,21:30:00,0,0,0,0,0,0,0,0,0,0,0,0,0,0,0,0,0,0,0,0,0,0,0,0,0,0,0,0,0,0
853000111,Ardara,54.76198074,-8.413544782,Ardara,County_Donegal,0,0,0,0,0,0,0,0,0,0,0,0,0,0,21:45:00,0,0,0,0,0,0,0,0,0,0,0,0,0,0,0,0,0,0,0,0,0,0,0,0,0,0,0,0,0,0
8530B141391,Glenties,54.79514436,-8.281597518,Glenties,County_Donegal,0,0,0,0,0,0,0,0,0,0,0,0,0,0,22:00:00,0,0,0,0,0,0,0,0,0,0,0,0,0,0,0,0,0,0,0,0,0,0,0,0,0,0,0,0,0,0
853000123,Community Hall,54.95046755,-8.358172758,An Clochán Liath,County_Donegal,0,0,0,0,0,0,0,0,0,0,0,0,0,0,22:30:00,0,0,0,0,0,0,0,0,0,0,0,0,0,0,0,0,0,0,0,0,0,0,0,0,0,0,0,0,0,0
853000041,Annagry,55.02203161,-8.318558521,Anagaire,County_Donegal,0,0,0,0,0,0,0,0,0,0,0,0,0,0,23:00:00,0,0,0,0,0,0,0,0,0,0,0,0,0,0,0,0,0,0,0,0,0,0,0,0,0,0,0,0,0,0
846000192,Galway Cathedral,53.27527019,-9.058258628,Galway city and suburbs,County_Galway,0,0,0,0,0,0,0,0,0,0,0,09:00:00,0,0,0,0,0,0,0,0,0,0,0,0,0,0,0,0,0,0,0,0,0,0,0,0,0,0,0,0,0,0,0,0,0
847000118,Level Crossing,53.51396854,-8.856816613,Tuam,County_Galway,0,0,0,0,0,0,0,0,0,0,0,09:25:00,0,0,0,0,0,0,0,0,0,0,0,0,0,0,0,0,0,0,0,0,0,0,0,0,0,0,0,0,0,0,0,0,0
849000355,The Square,53.71981748,-8.998796407,Claremorris,County_Mayo,0,0,0,0,0,0,0,0,0,0,0,09:50:00,0,0,0,0,0,0,0,0,0,0,0,0,0,0,0,0,0,0,0,0,0,0,0,0,0,0,0,0,0,0,0,0,0
849000298,Lennons Cafe,53.79548976,-8.918462017,Knock,County_Mayo,0,0,0,0,0,0,0,0,0,0,0,10:00:00,0,0,0,0,0,0,0,0,0,0,0,0,0,0,0,0,0,0,0,0,0,0,0,0,0,0,0,0,0,0,0,0,0
849000073,Sligo Road,53.96497101,-8.795493907,Charlestown-Bellahy,County_Mayo,0,0,0,0,0,0,0,0,0,0,0,10:20:00,0,0,0,0,0,0,0,0,0,0,0,0,0,0,0,0,0,0,0,0,0,0,0,0,0,0,0,0,0,0,0,0,0
851000082,Circular Road,54.05228823,-8.73501987,Tubbercurry,County_Sligo,0,0,0,0,0,0,0,0,0,0,0,10:30:00,0,0,0,0,0,0,0,0,0,0,0,0,0,0,0,0,0,0,0,0,0,0,0,0,0,0,0,0,0,0,0,0,0
8510PB002825,Ballinacarrow,54.13407301,-8.560833001,Ballinacarrow,County_Sligo,0,0,0,0,0,0,0,0,0,0,0,10:40:00,0,0,0,0,0,0,0,0,0,0,0,0,0,0,0,0,0,0,0,0,0,0,0,0,0,0,0,0,0,0,0,0,0
851000016,Hawthorn Court,54.18198753,-8.48591071,Collooney,County_Sligo,0,0,0,0,0,0,0,0,0,0,0,10:45:00,0,0,0,0,0,0,0,0,0,0,0,0,0,0,0,0,0,0,0,0,0,0,0,0,0,0,0,0,0,0,0,0,0
851000001,Markievicz Road,54.27279054,-8.473989627,Sligo,County_Sligo,0,0,0,0,0,0,0,0,0,0,0,11:15:00,0,0,0,0,0,0,0,0,0,0,0,0,0,0,0,0,0,0,0,0,0,0,0,0,0,0,0,0,0,0,0,0,0
851000008,Grange,54.393146,-8.523263,Grange,County_Sligo,0,0,0,0,0,0,0,0,0,0,0,11:25:00,0,0,0,0,0,0,0,0,0,0,0,0,0,0,0,0,0,0,0,0,0,0,0,0,0,0,0,0,0,0,0,0,0
853000100,Bundoran Centre,54.47789538,-8.280247146,Bundoran,County_Donegal,0,0,0,0,0,0,0,0,0,0,0,11:40:00,0,0,0,0,0,0,0,0,0,0,0,0,0,0,0,0,0,0,0,0,0,0,0,0,0,0,0,0,0,0,0,0,0
853000115,Ballyshannon,54.500992,-8.189952,Ballyshannon,County_Donegal,0,0,0,0,0,0,0,0,0,0,0,11:45:00,0,0,0,0,0,0,0,0,0,0,0,0,0,0,0,0,0,0,0,0,0,0,0,0,0,0,0,0,0,0,0,0,0
853000377,Opposite Garda Station,54.65267752,-8.111336492,Donegal,County_Donegal,0,0,0,0,0,0,0,0,0,0,0,12:05:00,0,0,0,0,0,0,0,0,0,0,0,0,0,0,0,0,0,0,0,0,0,0,0,0,0,0,0,0,0,0,0,0,0
853000076,Ballybofey,54.800148,-7.778756,Ballybofey-Stranorlar,County_Donegal,0,0,0,0,0,0,0,0,0,0,0,12:30:00,0,0,0,0,0,0,0,0,0,0,0,0,0,0,0,0,0,0,0,0,0,0,0,0,0,0,0,0,0,0,0,0,0
8530LL10831,Letterkenny Bus Station,54.95414234,-7.728641489,Letterkenny,County_Donegal,0,0,0,0,0,0,0,0,0,0,0,12:50:00,0,0,0,0,0,0,0,0,0,0,0,0,0,0,0,0,0,0,0,0,0,0,0,0,0,0,0,0,0,0,0,0,0
853000087,Kilmacrennan PO,55.02965903,-7.778463717,Kilmacrennan,County_Donegal,0,0,0,0,0,0,0,0,0,0,0,13:00:00,0,0,0,0,0,0,0,0,0,0,0,0,0,0,0,0,0,0,0,0,0,0,0,0,0,0,0,0,0,0,0,0,0
853000083,Creeslough,55.12118559,-7.905407798,Creeslough,County_Donegal,0,0,0,0,0,0,0,0,0,0,0,13:15:00,0,0,0,0,0,0,0,0,0,0,0,0,0,0,0,0,0,0,0,0,0,0,0,0,0,0,0,0,0,0,0,0,0
853000080,Dunfanaghy,55.18325504,-7.971691299,Dunfanaghy,County_Donegal,0,0,0,0,0,0,0,0,0,0,0,13:25:00,0,0,0,0,0,0,0,0,0,0,0,0,0,0,0,0,0,0,0,0,0,0,0,0,0,0,0,0,0,0,0,0,0
853000378,Public Phone Box,55.13638738,-8.105041321,An Fál Carrach,County_Donegal,0,0,0,0,0,0,0,0,0,0,0,13:40:00,0,0,0,0,0,0,0,0,0,0,0,0,0,0,0,0,0,0,0,0,0,0,0,0,0,0,0,0,0,0,0,0,0
8530PB000300,Gortahork,55.12152693,-8.133126276,Gort An Choirce,County_Donegal,0,0,0,0,0,0,0,0,0,0,0,13:45:00,0,0,0,0,0,0,0,0,0,0,0,0,0,0,0,0,0,0,0,0,0,0,0,0,0,0,0,0,0,0,0,0,0
853000379,Mollys Supermarket,55.07877753,-8.289631079,An Bun Beag-Doirí Beaga,County_Donegal,0,0,0,0,0,0,0,0,0,0,0,14:05:00,0,0,0,0,0,0,0,0,0,0,0,0,0,0,0,0,0,0,0,0,0,0,0,0,0,0,0,0,0,0,0,0,0
853000380,Bunbeg Crossroads,55.061177,-8.300805561,An Bun Beag-Doirí Beaga,County_Donegal,0,0,0,0,0,0,0,0,0,0,0,14:07:00,0,0,0,0,0,0,0,0,0,0,0,0,0,0,0,0,0,0,0,0,0,0,0,0,0,0,0,0,0,0,0,0,0
853000116,Crolly,55.02381756,-8.26296189,N56,County_Donegal,0,0,0,0,0,0,0,0,0,0,0,14:15:00,0,0,0,0,0,0,0,0,0,0,0,0,0,0,0,0,0,0,0,0,0,0,0,0,0,0,0,0,0,0,0,0,0
8490B5530801,Knock Airport,53.91406566,-8.81263954,Knock Airport,County_Mayo,0,0,0,0,0,0,0,0,0,0,0,0,0,0,0,21:10:00,0,0,0,0,0,0,0,0,0,0,0,0,0,0,0,0,0,0,0,0,0,0,0,0,0,0,0,0,0
8490B141641,Market Square,53.96396871,-8.794865239,Charlestown-Bellahy,County_Mayo,0,0,0,0,0,0,0,0,0,0,0,0,0,0,0,21:20:00,0,0,0,0,0,0,0,0,0,0,0,0,0,0,0,0,0,0,0,0,0,0,0,0,0,0,0,0,0
8490B5530801,Knock Airport,53.91406566,-8.81263954,Knock Airport,County_Mayo,0,0,0,0,0,0,0,0,0,0,0,0,0,0,0,21:30:00,0,0,0,0,0,0,0,0,0,0,0,0,0,0,0,0,0,0,0,0,0,0,0,0,0,0,0,0,0
846000192,Galway Cathedral,53.27527019,-9.058258628,Galway city and suburbs,County_Galway,0,0,0,0,0,0,0,0,0,0,0,09:00:00,0,0,0,0,0,0,0,0,0,0,0,0,0,0,0,0,0,0,0,0,0,0,0,0,0,0,0,0,0,0,0,0,0
847000118,Level Crossing,53.51396854,-8.856816613,Tuam,County_Galway,0,0,0,0,0,0,0,0,0,0,0,09:25:00,0,0,0,0,0,0,0,0,0,0,0,0,0,0,0,0,0,0,0,0,0,0,0,0,0,0,0,0,0,0,0,0,0
849000355,The Square,53.71981748,-8.998796407,Claremorris,County_Mayo,0,0,0,0,0,0,0,0,0,0,0,09:50:00,0,0,0,0,0,0,0,0,0,0,0,0,0,0,0,0,0,0,0,0,0,0,0,0,0,0,0,0,0,0,0,0,0
849000298,Lennons Cafe,53.79548976,-8.918462017,Knock,County_Mayo,0,0,0,0,0,0,0,0,0,0,0,10:00:00,0,0,0,0,0,0,0,0,0,0,0,0,0,0,0,0,0,0,0,0,0,0,0,0,0,0,0,0,0,0,0,0,0
849000073,Sligo Road,53.96497101,-8.795493907,Charlestown-Bellahy,County_Mayo,0,0,0,0,0,0,0,0,0,0,0,10:20:00,0,0,0,0,0,0,0,0,0,0,0,0,0,0,0,0,0,0,0,0,0,0,0,0,0,0,0,0,0,0,0,0,0
851000082,Circular Road,54.05228823,-8.73501987,Tubbercurry,County_Sligo,0,0,0,0,0,0,0,0,0,0,0,10:30:00,0,0,0,0,0,0,0,0,0,0,0,0,0,0,0,0,0,0,0,0,0,0,0,0,0,0,0,0,0,0,0,0,0
8510PB002825,Ballinacarrow,54.13407301,-8.560833001,Ballinacarrow,County_Sligo,0,0,0,0,0,0,0,0,0,0,0,10:40:00,0,0,0,0,0,0,0,0,0,0,0,0,0,0,0,0,0,0,0,0,0,0,0,0,0,0,0,0,0,0,0,0,0
851000016,Hawthorn Court,54.18198753,-8.48591071,Collooney,County_Sligo,0,0,0,0,0,0,0,0,0,0,0,10:45:00,0,0,0,0,0,0,0,0,0,0,0,0,0,0,0,0,0,0,0,0,0,0,0,0,0,0,0,0,0,0,0,0,0
851000001,Markievicz Road,54.27279054,-8.473989627,Sligo,County_Sligo,0,0,0,0,0,0,0,0,0,0,0,11:15:00,0,0,0,0,0,0,0,0,0,0,0,0,0,0,0,0,0,0,0,0,0,0,0,0,0,0,0,0,0,0,0,0,0
851000008,Grange,54.393146,-8.523263,Grange,County_Sligo,0,0,0,0,0,0,0,0,0,0,0,11:25:00,0,0,0,0,0,0,0,0,0,0,0,0,0,0,0,0,0,0,0,0,0,0,0,0,0,0,0,0,0,0,0,0,0
853000100,Bundoran Centre,54.47789538,-8.280247146,Bundoran,County_Donegal,0,0,0,0,0,0,0,0,0,0,0,11:40:00,0,0,0,0,0,0,0,0,0,0,0,0,0,0,0,0,0,0,0,0,0,0,0,0,0,0,0,0,0,0,0,0,0
853000115,Ballyshannon,54.500992,-8.189952,Ballyshannon,County_Donegal,0,0,0,0,0,0,0,0,0,0,0,11:45:00,0,0,0,0,0,0,0,0,0,0,0,0,0,0,0,0,0,0,0,0,0,0,0,0,0,0,0,0,0,0,0,0,0
853000377,Opposite Garda Station,54.65267752,-8.111336492,Donegal,County_Donegal,0,0,0,0,0,0,0,0,0,0,0,12:05:00,0,0,0,0,0,0,0,0,0,0,0,0,0,0,0,0,0,0,0,0,0,0,0,0,0,0,0,0,0,0,0,0,0
853000076,Ballybofey,54.800148,-7.778756,Ballybofey-Stranorlar,County_Donegal,0,0,0,0,0,0,0,0,0,0,0,12:30:00,0,0,0,0,0,0,0,0,0,0,0,0,0,0,0,0,0,0,0,0,0,0,0,0,0,0,0,0,0,0,0,0,0
8530LL10831,Letterkenny Bus Station,54.95414234,-7.728641489,Letterkenny,County_Donegal,0,0,0,0,0,0,0,0,0,0,0,12:50:00,0,0,0,0,0,0,0,0,0,0,0,0,0,0,0,0,0,0,0,0,0,0,0,0,0,0,0,0,0,0,0,0,0
853000087,Kilmacrennan PO,55.02965903,-7.778463717,Kilmacrennan,County_Donegal,0,0,0,0,0,0,0,0,0,0,0,13:00:00,0,0,0,0,0,0,0,0,0,0,0,0,0,0,0,0,0,0,0,0,0,0,0,0,0,0,0,0,0,0,0,0,0
853000083,Creeslough,55.12118559,-7.905407798,Creeslough,County_Donegal,0,0,0,0,0,0,0,0,0,0,0,13:15:00,0,0,0,0,0,0,0,0,0,0,0,0,0,0,0,0,0,0,0,0,0,0,0,0,0,0,0,0,0,0,0,0,0
853000080,Dunfanaghy,55.18325504,-7.971691299,Dunfanaghy,County_Donegal,0,0,0,0,0,0,0,0,0,0,0,13:25:00,0,0,0,0,0,0,0,0,0,0,0,0,0,0,0,0,0,0,0,0,0,0,0,0,0,0,0,0,0,0,0,0,0
853000378,Public Phone Box,55.13638738,-8.105041321,An Fál Carrach,County_Donegal,0,0,0,0,0,0,0,0,0,0,0,13:40:00,0,0,0,0,0,0,0,0,0,0,0,0,0,0,0,0,0,0,0,0,0,0,0,0,0,0,0,0,0,0,0,0,0
8530PB000300,Gortahork,55.12152693,-8.133126276,Gort An Choirce,County_Donegal,0,0,0,0,0,0,0,0,0,0,0,13:45:00,0,0,0,0,0,0,0,0,0,0,0,0,0,0,0,0,0,0,0,0,0,0,0,0,0,0,0,0,0,0,0,0,0
853000379,Mollys Supermarket,55.07877753,-8.289631079,An Bun Beag-Doirí Beaga,County_Donegal,0,0,0,0,0,0,0,0,0,0,0,14:05:00,0,0,0,0,0,0,0,0,0,0,0,0,0,0,0,0,0,0,0,0,0,0,0,0,0,0,0,0,0,0,0,0,0
853000380,Bunbeg Crossroads,55.061177,-8.300805561,An Bun Beag-Doirí Beaga,County_Donegal,0,0,0,0,0,0,0,0,0,0,0,14:07:00,0,0,0,0,0,0,0,0,0,0,0,0,0,0,0,0,0,0,0,0,0,0,0,0,0,0,0,0,0,0,0,0,0
853000116,Crolly,55.02381756,-8.26296189,N56,County_Donegal,0,0,0,0,0,0,0,0,0,0,0,14:15:00,0,0,0,0,0,0,0,0,0,0,0,0,0,0,0,0,0,0,0,0,0,0,0,0,0,0,0,0,0,0,0,0,0
853000116,Crolly,55.02381756,-8.26296189,N56,County_Donegal,0,0,0,0,0,0,0,0,0,0,0,0,0,0,0,0,07:20:00,0,0,0,0,0,0,0,0,0,0,0,0,0,0,0,0,0,0,0,0,0,0,0,0,0,0,0,0
853000380,Bunbeg Crossroads,55.061177,-8.300805561,An Bun Beag-Doirí Beaga,County_Donegal,0,0,0,0,0,0,0,0,0,0,0,0,0,0,0,0,07:30:00,0,0,0,0,0,0,0,0,0,0,0,0,0,0,0,0,0,0,0,0,0,0,0,0,0,0,0,0
853000379,Mollys Supermarket,55.07877753,-8.289631079,An Bun Beag-Doirí Beaga,County_Donegal,0,0,0,0,0,0,0,0,0,0,0,0,0,0,0,0,07:32:00,0,0,0,0,0,0,0,0,0,0,0,0,0,0,0,0,0,0,0,0,0,0,0,0,0,0,0,0
8530PB000302,Gortahork,55.12151803,-8.133047863,Gort An Choirce,County_Donegal,0,0,0,0,0,0,0,0,0,0,0,0,0,0,0,0,07:45:00,0,0,0,0,0,0,0,0,0,0,0,0,0,0,0,0,0,0,0,0,0,0,0,0,0,0,0,0
853000378,Public Phone Box,55.13638738,-8.105041321,An Fál Carrach,County_Donegal,0,0,0,0,0,0,0,0,0,0,0,0,0,0,0,0,07:50:00,0,0,0,0,0,0,0,0,0,0,0,0,0,0,0,0,0,0,0,0,0,0,0,0,0,0,0,0
853000051,Dunfanaghy,55.18325504,-7.971691299,Dunfanaghy,County_Donegal,0,0,0,0,0,0,0,0,0,0,0,0,0,0,0,0,08:00:00,0,0,0,0,0,0,0,0,0,0,0,0,0,0,0,0,0,0,0,0,0,0,0,0,0,0,0,0
853000081,Creeslough,55.1211044,-7.904984725,Creeslough,County_Donegal,0,0,0,0,0,0,0,0,0,0,0,0,0,0,0,0,08:10:00,0,0,0,0,0,0,0,0,0,0,0,0,0,0,0,0,0,0,0,0,0,0,0,0,0,0,0,0
853000087,Kilmacrennan PO,55.02965903,-7.778463717,Kilmacrennan,County_Donegal,0,0,0,0,0,0,0,0,0,0,0,0,0,0,0,0,08:20:00,0,0,0,0,0,0,0,0,0,0,0,0,0,0,0,0,0,0,0,0,0,0,0,0,0,0,0,0
8530LL10831,Letterkenny Bus Station,54.95414234,-7.728641489,Letterkenny,County_Donegal,0,0,0,0,0,0,0,0,0,0,0,0,0,0,0,0,09:00:00,0,0,0,0,0,0,0,0,0,0,0,0,0,0,0,0,0,0,0,0,0,0,0,0,0,0,0,0
853000113,Lower Main Street,54.8000226,-7.778897126,Ballybofey-Stranorlar,County_Donegal,0,0,0,0,0,0,0,0,0,0,0,0,0,0,0,0,09:15:00,0,0,0,0,0,0,0,0,0,0,0,0,0,0,0,0,0,0,0,0,0,0,0,0,0,0,0,0
853000114,Donegal Town Garda Station,54.65240809,-8.111196295,Donegal,County_Donegal,0,0,0,0,0,0,0,0,0,0,0,0,0,0,0,0,09:45:00,0,0,0,0,0,0,0,0,0,0,0,0,0,0,0,0,0,0,0,0,0,0,0,0,0,0,0,0
853000381,Maggies Bar,54.50028151,-8.190551028,Ballyshannon,County_Donegal,0,0,0,0,0,0,0,0,0,0,0,0,0,0,0,0,10:00:00,0,0,0,0,0,0,0,0,0,0,0,0,0,0,0,0,0,0,0,0,0,0,0,0,0,0,0,0
853000016,Main Street,54.477968,-8.279908,Bundoran,County_Donegal,0,0,0,0,0,0,0,0,0,0,0,0,0,0,0,0,10:05:00,0,0,0,0,0,0,0,0,0,0,0,0,0,0,0,0,0,0,0,0,0,0,0,0,0,0,0,0
8510B555131,Grange,54.39307357,-8.523400984,Grange,County_Sligo,0,0,0,0,0,0,0,0,0,0,0,0,0,0,0,0,10:15:00,0,0,0,0,0,0,0,0,0,0,0,0,0,0,0,0,0,0,0,0,0,0,0,0,0,0,0,0
8510B5584201,Markievicz Road,54.27262833,-8.474110589,Sligo,County_Sligo,0,0,0,0,0,0,0,0,0,0,0,0,0,0,0,0,11:00:00,0,0,0,0,0,0,0,0,0,0,0,0,0,0,0,0,0,0,0,0,0,0,0,0,0,0,0,0
851000036,Hawthorn Court,54.18200648,-8.485665822,Collooney,County_Sligo,0,0,0,0,0,0,0,0,0,0,0,0,0,0,0,0,11:05:00,0,0,0,0,0,0,0,0,0,0,0,0,0,0,0,0,0,0,0,0,0,0,0,0,0,0,0,0
8510B550211,Ballinacarrow,54.13379389,-8.560951644,Ballinacarrow,County_Sligo,0,0,0,0,0,0,0,0,0,0,0,0,0,0,0,0,11:10:00,0,0,0,0,0,0,0,0,0,0,0,0,0,0,0,0,0,0,0,0,0,0,0,0,0,0,0,0
851000082,Circular Road,54.05228823,-8.73501987,Tubbercurry,County_Sligo,0,0,0,0,0,0,0,0,0,0,0,0,0,0,0,0,11:20:00,0,0,0,0,0,0,0,0,0,0,0,0,0,0,0,0,0,0,0,0,0,0,0,0,0,0,0,0
849000277,Charlestown Square,53.96395246,-8.794605857,Charlestown-Bellahy,County_Mayo,0,0,0,0,0,0,0,0,0,0,0,0,0,0,0,0,11:30:00,0,0,0,0,0,0,0,0,0,0,0,0,0,0,0,0,0,0,0,0,0,0,0,0,0,0,0,0
849000298,Lennons Cafe,53.79548976,-8.918462017,Knock,County_Mayo,0,0,0,0,0,0,0,0,0,0,0,0,0,0,0,0,11:50:00,0,0,0,0,0,0,0,0,0,0,0,0,0,0,0,0,0,0,0,0,0,0,0,0,0,0,0,0
849000278,Main Street,53.71981786,-8.998750962,Claremorris,County_Mayo,0,0,0,0,0,0,0,0,0,0,0,0,0,0,0,0,12:00:00,0,0,0,0,0,0,0,0,0,0,0,0,0,0,0,0,0,0,0,0,0,0,0,0,0,0,0,0
847000552,Level Crossing,53.51394191,-8.856770843,Tuam,County_Galway,0,0,0,0,0,0,0,0,0,0,0,0,0,0,0,0,12:25:00,0,0,0,0,0,0,0,0,0,0,0,0,0,0,0,0,0,0,0,0,0,0,0,0,0,0,0,0
846000057,Eyre Square,53.27360079,-9.048846635,Galway city and suburbs,County_Galway,0,0,0,0,0,0,0,0,0,0,0,0,0,0,0,0,13:05:00,0,0,0,0,0,0,0,0,0,0,0,0,0,0,0,0,0,0,0,0,0,0,0,0,0,0,0,0
846000192,Galway Cathedral,53.27527019,-9.058258628,Galway city and suburbs,County_Galway,0,0,0,0,0,0,0,0,0,0,0,0,0,0,0,0,13:10:00,0,0,0,0,0,0,0,0,0,0,0,0,0,0,0,0,0,0,0,0,0,0,0,0,0,0,0,0
846000192,Galway Cathedral,53.27527019,-9.058258628,Galway city and suburbs,County_Galway,0,0,0,0,0,0,0,0,0,0,0,09:00:00,0,0,0,0,0,0,0,0,0,0,0,0,0,0,0,0,0,0,0,0,0,0,0,0,0,0,0,0,0,0,0,0,0
847000118,Level Crossing,53.51396854,-8.856816613,Tuam,County_Galway,0,0,0,0,0,0,0,0,0,0,0,09:25:00,0,0,0,0,0,0,0,0,0,0,0,0,0,0,0,0,0,0,0,0,0,0,0,0,0,0,0,0,0,0,0,0,0
849000355,The Square,53.71981748,-8.998796407,Claremorris,County_Mayo,0,0,0,0,0,0,0,0,0,0,0,09:50:00,0,0,0,0,0,0,0,0,0,0,0,0,0,0,0,0,0,0,0,0,0,0,0,0,0,0,0,0,0,0,0,0,0
849000298,Lennons Cafe,53.79548976,-8.918462017,Knock,County_Mayo,0,0,0,0,0,0,0,0,0,0,0,10:00:00,0,0,0,0,0,0,0,0,0,0,0,0,0,0,0,0,0,0,0,0,0,0,0,0,0,0,0,0,0,0,0,0,0
849000073,Sligo Road,53.96497101,-8.795493907,Charlestown-Bellahy,County_Mayo,0,0,0,0,0,0,0,0,0,0,0,10:20:00,0,0,0,0,0,0,0,0,0,0,0,0,0,0,0,0,0,0,0,0,0,0,0,0,0,0,0,0,0,0,0,0,0
851000082,Circular Road,54.05228823,-8.73501987,Tubbercurry,County_Sligo,0,0,0,0,0,0,0,0,0,0,0,10:30:00,0,0,0,0,0,0,0,0,0,0,0,0,0,0,0,0,0,0,0,0,0,0,0,0,0,0,0,0,0,0,0,0,0
8510PB002825,Ballinacarrow,54.13407301,-8.560833001,Ballinacarrow,County_Sligo,0,0,0,0,0,0,0,0,0,0,0,10:40:00,0,0,0,0,0,0,0,0,0,0,0,0,0,0,0,0,0,0,0,0,0,0,0,0,0,0,0,0,0,0,0,0,0
851000016,Hawthorn Court,54.18198753,-8.48591071,Collooney,County_Sligo,0,0,0,0,0,0,0,0,0,0,0,10:45:00,0,0,0,0,0,0,0,0,0,0,0,0,0,0,0,0,0,0,0,0,0,0,0,0,0,0,0,0,0,0,0,0,0
851000001,Markievicz Road,54.27279054,-8.473989627,Sligo,County_Sligo,0,0,0,0,0,0,0,0,0,0,0,11:15:00,0,0,0,0,0,0,0,0,0,0,0,0,0,0,0,0,0,0,0,0,0,0,0,0,0,0,0,0,0,0,0,0,0
851000008,Grange,54.393146,-8.523263,Grange,County_Sligo,0,0,0,0,0,0,0,0,0,0,0,11:25:00,0,0,0,0,0,0,0,0,0,0,0,0,0,0,0,0,0,0,0,0,0,0,0,0,0,0,0,0,0,0,0,0,0
853000100,Bundoran Centre,54.47789538,-8.280247146,Bundoran,County_Donegal,0,0,0,0,0,0,0,0,0,0,0,11:40:00,0,0,0,0,0,0,0,0,0,0,0,0,0,0,0,0,0,0,0,0,0,0,0,0,0,0,0,0,0,0,0,0,0
853000115,Ballyshannon,54.500992,-8.189952,Ballyshannon,County_Donegal,0,0,0,0,0,0,0,0,0,0,0,11:45:00,0,0,0,0,0,0,0,0,0,0,0,0,0,0,0,0,0,0,0,0,0,0,0,0,0,0,0,0,0,0,0,0,0
853000377,Opposite Garda Station,54.65267752,-8.111336492,Donegal,County_Donegal,0,0,0,0,0,0,0,0,0,0,0,12:05:00,0,0,0,0,0,0,0,0,0,0,0,0,0,0,0,0,0,0,0,0,0,0,0,0,0,0,0,0,0,0,0,0,0
853000076,Ballybofey,54.800148,-7.778756,Ballybofey-Stranorlar,County_Donegal,0,0,0,0,0,0,0,0,0,0,0,12:30:00,0,0,0,0,0,0,0,0,0,0,0,0,0,0,0,0,0,0,0,0,0,0,0,0,0,0,0,0,0,0,0,0,0
8530LL10831,Letterkenny Bus Station,54.95414234,-7.728641489,Letterkenny,County_Donegal,0,0,0,0,0,0,0,0,0,0,0,12:50:00,0,0,0,0,0,0,0,0,0,0,0,0,0,0,0,0,0,0,0,0,0,0,0,0,0,0,0,0,0,0,0,0,0
853000087,Kilmacrennan PO,55.02965903,-7.778463717,Kilmacrennan,County_Donegal,0,0,0,0,0,0,0,0,0,0,0,13:00:00,0,0,0,0,0,0,0,0,0,0,0,0,0,0,0,0,0,0,0,0,0,0,0,0,0,0,0,0,0,0,0,0,0
853000083,Creeslough,55.12118559,-7.905407798,Creeslough,County_Donegal,0,0,0,0,0,0,0,0,0,0,0,13:15:00,0,0,0,0,0,0,0,0,0,0,0,0,0,0,0,0,0,0,0,0,0,0,0,0,0,0,0,0,0,0,0,0,0
853000080,Dunfanaghy,55.18325504,-7.971691299,Dunfanaghy,County_Donegal,0,0,0,0,0,0,0,0,0,0,0,13:25:00,0,0,0,0,0,0,0,0,0,0,0,0,0,0,0,0,0,0,0,0,0,0,0,0,0,0,0,0,0,0,0,0,0
853000378,Public Phone Box,55.13638738,-8.105041321,An Fál Carrach,County_Donegal,0,0,0,0,0,0,0,0,0,0,0,13:40:00,0,0,0,0,0,0,0,0,0,0,0,0,0,0,0,0,0,0,0,0,0,0,0,0,0,0,0,0,0,0,0,0,0
8530PB000300,Gortahork,55.12152693,-8.133126276,Gort An Choirce,County_Donegal,0,0,0,0,0,0,0,0,0,0,0,13:45:00,0,0,0,0,0,0,0,0,0,0,0,0,0,0,0,0,0,0,0,0,0,0,0,0,0,0,0,0,0,0,0,0,0
853000379,Mollys Supermarket,55.07877753,-8.289631079,An Bun Beag-Doirí Beaga,County_Donegal,0,0,0,0,0,0,0,0,0,0,0,14:05:00,0,0,0,0,0,0,0,0,0,0,0,0,0,0,0,0,0,0,0,0,0,0,0,0,0,0,0,0,0,0,0,0,0
853000380,Bunbeg Crossroads,55.061177,-8.300805561,An Bun Beag-Doirí Beaga,County_Donegal,0,0,0,0,0,0,0,0,0,0,0,14:07:00,0,0,0,0,0,0,0,0,0,0,0,0,0,0,0,0,0,0,0,0,0,0,0,0,0,0,0,0,0,0,0,0,0
853000116,Crolly,55.02381756,-8.26296189,N56,County_Donegal,0,0,0,0,0,0,0,0,0,0,0,14:15:00,0,0,0,0,0,0,0,0,0,0,0,0,0,0,0,0,0,0,0,0,0,0,0,0,0,0,0,0,0,0,0,0,0
853000116,Crolly,55.02381756,-8.26296189,N56,County_Donegal,0,0,0,0,0,0,0,0,0,0,0,0,0,0,0,0,0,07:20:00,0,0,0,0,0,0,0,0,0,0,0,0,0,0,0,0,0,0,0,0,0,0,0,0,0,0,0
853000380,Bunbeg Crossroads,55.061177,-8.300805561,An Bun Beag-Doirí Beaga,County_Donegal,0,0,0,0,0,0,0,0,0,0,0,0,0,0,0,0,0,07:30:00,0,0,0,0,0,0,0,0,0,0,0,0,0,0,0,0,0,0,0,0,0,0,0,0,0,0,0
853000379,Mollys Supermarket,55.07877753,-8.289631079,An Bun Beag-Doirí Beaga,County_Donegal,0,0,0,0,0,0,0,0,0,0,0,0,0,0,0,0,0,07:32:00,0,0,0,0,0,0,0,0,0,0,0,0,0,0,0,0,0,0,0,0,0,0,0,0,0,0,0
8530PB000302,Gortahork,55.12151803,-8.133047863,Gort An Choirce,County_Donegal,0,0,0,0,0,0,0,0,0,0,0,0,0,0,0,0,0,07:45:00,0,0,0,0,0,0,0,0,0,0,0,0,0,0,0,0,0,0,0,0,0,0,0,0,0,0,0
853000378,Public Phone Box,55.13638738,-8.105041321,An Fál Carrach,County_Donegal,0,0,0,0,0,0,0,0,0,0,0,0,0,0,0,0,0,07:50:00,0,0,0,0,0,0,0,0,0,0,0,0,0,0,0,0,0,0,0,0,0,0,0,0,0,0,0
853000051,Dunfanaghy,55.18325504,-7.971691299,Dunfanaghy,County_Donegal,0,0,0,0,0,0,0,0,0,0,0,0,0,0,0,0,0,08:00:00,0,0,0,0,0,0,0,0,0,0,0,0,0,0,0,0,0,0,0,0,0,0,0,0,0,0,0
853000081,Creeslough,55.1211044,-7.904984725,Creeslough,County_Donegal,0,0,0,0,0,0,0,0,0,0,0,0,0,0,0,0,0,08:10:00,0,0,0,0,0,0,0,0,0,0,0,0,0,0,0,0,0,0,0,0,0,0,0,0,0,0,0
853000087,Kilmacrennan PO,55.02965903,-7.778463717,Kilmacrennan,County_Donegal,0,0,0,0,0,0,0,0,0,0,0,0,0,0,0,0,0,08:20:00,0,0,0,0,0,0,0,0,0,0,0,0,0,0,0,0,0,0,0,0,0,0,0,0,0,0,0
8530LL10831,Letterkenny Bus Station,54.95414234,-7.728641489,Letterkenny,County_Donegal,0,0,0,0,0,0,0,0,0,0,0,0,0,0,0,0,0,09:00:00,0,0,0,0,0,0,0,0,0,0,0,0,0,0,0,0,0,0,0,0,0,0,0,0,0,0,0
853000113,Lower Main Street,54.8000226,-7.778897126,Ballybofey-Stranorlar,County_Donegal,0,0,0,0,0,0,0,0,0,0,0,0,0,0,0,0,0,09:15:00,0,0,0,0,0,0,0,0,0,0,0,0,0,0,0,0,0,0,0,0,0,0,0,0,0,0,0
853000114,Donegal Town Garda Station,54.65240809,-8.111196295,Donegal,County_Donegal,0,0,0,0,0,0,0,0,0,0,0,0,0,0,0,0,0,09:45:00,0,0,0,0,0,0,0,0,0,0,0,0,0,0,0,0,0,0,0,0,0,0,0,0,0,0,0
853000381,Maggies Bar,54.50028151,-8.190551028,Ballyshannon,County_Donegal,0,0,0,0,0,0,0,0,0,0,0,0,0,0,0,0,0,10:00:00,0,0,0,0,0,0,0,0,0,0,0,0,0,0,0,0,0,0,0,0,0,0,0,0,0,0,0
853000016,Main Street,54.477968,-8.279908,Bundoran,County_Donegal,0,0,0,0,0,0,0,0,0,0,0,0,0,0,0,0,0,10:05:00,0,0,0,0,0,0,0,0,0,0,0,0,0,0,0,0,0,0,0,0,0,0,0,0,0,0,0
8510B555131,Grange,54.39307357,-8.523400984,Grange,County_Sligo,0,0,0,0,0,0,0,0,0,0,0,0,0,0,0,0,0,10:15:00,0,0,0,0,0,0,0,0,0,0,0,0,0,0,0,0,0,0,0,0,0,0,0,0,0,0,0
8510B5584201,Markievicz Road,54.27262833,-8.474110589,Sligo,County_Sligo,0,0,0,0,0,0,0,0,0,0,0,0,0,0,0,0,0,11:00:00,0,0,0,0,0,0,0,0,0,0,0,0,0,0,0,0,0,0,0,0,0,0,0,0,0,0,0
851000036,Hawthorn Court,54.18200648,-8.485665822,Collooney,County_Sligo,0,0,0,0,0,0,0,0,0,0,0,0,0,0,0,0,0,11:05:00,0,0,0,0,0,0,0,0,0,0,0,0,0,0,0,0,0,0,0,0,0,0,0,0,0,0,0
8510B550211,Ballinacarrow,54.13379389,-8.560951644,Ballinacarrow,County_Sligo,0,0,0,0,0,0,0,0,0,0,0,0,0,0,0,0,0,11:10:00,0,0,0,0,0,0,0,0,0,0,0,0,0,0,0,0,0,0,0,0,0,0,0,0,0,0,0
851000082,Circular Road,54.05228823,-8.73501987,Tubbercurry,County_Sligo,0,0,0,0,0,0,0,0,0,0,0,0,0,0,0,0,0,11:20:00,0,0,0,0,0,0,0,0,0,0,0,0,0,0,0,0,0,0,0,0,0,0,0,0,0,0,0
849000277,Charlestown Square,53.96395246,-8.794605857,Charlestown-Bellahy,County_Mayo,0,0,0,0,0,0,0,0,0,0,0,0,0,0,0,0,0,11:30:00,0,0,0,0,0,0,0,0,0,0,0,0,0,0,0,0,0,0,0,0,0,0,0,0,0,0,0
849000298,Lennons Cafe,53.79548976,-8.918462017,Knock,County_Mayo,0,0,0,0,0,0,0,0,0,0,0,0,0,0,0,0,0,11:50:00,0,0,0,0,0,0,0,0,0,0,0,0,0,0,0,0,0,0,0,0,0,0,0,0,0,0,0
849000278,Main Street,53.71981786,-8.998750962,Claremorris,County_Mayo,0,0,0,0,0,0,0,0,0,0,0,0,0,0,0,0,0,12:00:00,0,0,0,0,0,0,0,0,0,0,0,0,0,0,0,0,0,0,0,0,0,0,0,0,0,0,0
847000552,Level Crossing,53.51394191,-8.856770843,Tuam,County_Galway,0,0,0,0,0,0,0,0,0,0,0,0,0,0,0,0,0,12:25:00,0,0,0,0,0,0,0,0,0,0,0,0,0,0,0,0,0,0,0,0,0,0,0,0,0,0,0
846000057,Eyre Square,53.27360079,-9.048846635,Galway city and suburbs,County_Galway,0,0,0,0,0,0,0,0,0,0,0,0,0,0,0,0,0,13:05:00,0,0,0,0,0,0,0,0,0,0,0,0,0,0,0,0,0,0,0,0,0,0,0,0,0,0,0
846000192,Galway Cathedral,53.27527019,-9.058258628,Galway city and suburbs,County_Galway,0,0,0,0,0,0,0,0,0,0,0,0,0,0,0,0,0,13:10:00,0,0,0,0,0,0,0,0,0,0,0,0,0,0,0,0,0,0,0,0,0,0,0,0,0,0,0
846000192,Galway Cathedral,53.27527019,-9.058258628,Galway city and suburbs,County_Galway,0,0,0,0,0,0,0,0,0,0,0,09:00:00,0,0,0,0,0,0,0,0,0,0,0,0,0,0,0,0,0,0,0,0,0,0,0,0,0,0,0,0,0,0,0,0,0
847000118,Level Crossing,53.51396854,-8.856816613,Tuam,County_Galway,0,0,0,0,0,0,0,0,0,0,0,09:25:00,0,0,0,0,0,0,0,0,0,0,0,0,0,0,0,0,0,0,0,0,0,0,0,0,0,0,0,0,0,0,0,0,0
849000355,The Square,53.71981748,-8.998796407,Claremorris,County_Mayo,0,0,0,0,0,0,0,0,0,0,0,09:50:00,0,0,0,0,0,0,0,0,0,0,0,0,0,0,0,0,0,0,0,0,0,0,0,0,0,0,0,0,0,0,0,0,0
849000298,Lennons Cafe,53.79548976,-8.918462017,Knock,County_Mayo,0,0,0,0,0,0,0,0,0,0,0,10:00:00,0,0,0,0,0,0,0,0,0,0,0,0,0,0,0,0,0,0,0,0,0,0,0,0,0,0,0,0,0,0,0,0,0
849000073,Sligo Road,53.96497101,-8.795493907,Charlestown-Bellahy,County_Mayo,0,0,0,0,0,0,0,0,0,0,0,10:20:00,0,0,0,0,0,0,0,0,0,0,0,0,0,0,0,0,0,0,0,0,0,0,0,0,0,0,0,0,0,0,0,0,0
851000082,Circular Road,54.05228823,-8.73501987,Tubbercurry,County_Sligo,0,0,0,0,0,0,0,0,0,0,0,10:30:00,0,0,0,0,0,0,0,0,0,0,0,0,0,0,0,0,0,0,0,0,0,0,0,0,0,0,0,0,0,0,0,0,0
8510PB002825,Ballinacarrow,54.13407301,-8.560833001,Ballinacarrow,County_Sligo,0,0,0,0,0,0,0,0,0,0,0,10:40:00,0,0,0,0,0,0,0,0,0,0,0,0,0,0,0,0,0,0,0,0,0,0,0,0,0,0,0,0,0,0,0,0,0
851000016,Hawthorn Court,54.18198753,-8.48591071,Collooney,County_Sligo,0,0,0,0,0,0,0,0,0,0,0,10:45:00,0,0,0,0,0,0,0,0,0,0,0,0,0,0,0,0,0,0,0,0,0,0,0,0,0,0,0,0,0,0,0,0,0
851000001,Markievicz Road,54.27279054,-8.473989627,Sligo,County_Sligo,0,0,0,0,0,0,0,0,0,0,0,11:15:00,0,0,0,0,0,0,0,0,0,0,0,0,0,0,0,0,0,0,0,0,0,0,0,0,0,0,0,0,0,0,0,0,0
851000008,Grange,54.393146,-8.523263,Grange,County_Sligo,0,0,0,0,0,0,0,0,0,0,0,11:25:00,0,0,0,0,0,0,0,0,0,0,0,0,0,0,0,0,0,0,0,0,0,0,0,0,0,0,0,0,0,0,0,0,0
853000100,Bundoran Centre,54.47789538,-8.280247146,Bundoran,County_Donegal,0,0,0,0,0,0,0,0,0,0,0,11:40:00,0,0,0,0,0,0,0,0,0,0,0,0,0,0,0,0,0,0,0,0,0,0,0,0,0,0,0,0,0,0,0,0,0
853000115,Ballyshannon,54.500992,-8.189952,Ballyshannon,County_Donegal,0,0,0,0,0,0,0,0,0,0,0,11:45:00,0,0,0,0,0,0,0,0,0,0,0,0,0,0,0,0,0,0,0,0,0,0,0,0,0,0,0,0,0,0,0,0,0
853000377,Opposite Garda Station,54.65267752,-8.111336492,Donegal,County_Donegal,0,0,0,0,0,0,0,0,0,0,0,12:05:00,0,0,0,0,0,0,0,0,0,0,0,0,0,0,0,0,0,0,0,0,0,0,0,0,0,0,0,0,0,0,0,0,0
853000076,Ballybofey,54.800148,-7.778756,Ballybofey-Stranorlar,County_Donegal,0,0,0,0,0,0,0,0,0,0,0,12:30:00,0,0,0,0,0,0,0,0,0,0,0,0,0,0,0,0,0,0,0,0,0,0,0,0,0,0,0,0,0,0,0,0,0
8530LL10831,Letterkenny Bus Station,54.95414234,-7.728641489,Letterkenny,County_Donegal,0,0,0,0,0,0,0,0,0,0,0,12:50:00,0,0,0,0,0,0,0,0,0,0,0,0,0,0,0,0,0,0,0,0,0,0,0,0,0,0,0,0,0,0,0,0,0
853000087,Kilmacrennan PO,55.02965903,-7.778463717,Kilmacrennan,County_Donegal,0,0,0,0,0,0,0,0,0,0,0,13:00:00,0,0,0,0,0,0,0,0,0,0,0,0,0,0,0,0,0,0,0,0,0,0,0,0,0,0,0,0,0,0,0,0,0
853000083,Creeslough,55.12118559,-7.905407798,Creeslough,County_Donegal,0,0,0,0,0,0,0,0,0,0,0,13:15:00,0,0,0,0,0,0,0,0,0,0,0,0,0,0,0,0,0,0,0,0,0,0,0,0,0,0,0,0,0,0,0,0,0
853000080,Dunfanaghy,55.18325504,-7.971691299,Dunfanaghy,County_Donegal,0,0,0,0,0,0,0,0,0,0,0,13:25:00,0,0,0,0,0,0,0,0,0,0,0,0,0,0,0,0,0,0,0,0,0,0,0,0,0,0,0,0,0,0,0,0,0
853000378,Public Phone Box,55.13638738,-8.105041321,An Fál Carrach,County_Donegal,0,0,0,0,0,0,0,0,0,0,0,13:40:00,0,0,0,0,0,0,0,0,0,0,0,0,0,0,0,0,0,0,0,0,0,0,0,0,0,0,0,0,0,0,0,0,0
8530PB000300,Gortahork,55.12152693,-8.133126276,Gort An Choirce,County_Donegal,0,0,0,0,0,0,0,0,0,0,0,13:45:00,0,0,0,0,0,0,0,0,0,0,0,0,0,0,0,0,0,0,0,0,0,0,0,0,0,0,0,0,0,0,0,0,0
853000379,Mollys Supermarket,55.07877753,-8.289631079,An Bun Beag-Doirí Beaga,County_Donegal,0,0,0,0,0,0,0,0,0,0,0,14:05:00,0,0,0,0,0,0,0,0,0,0,0,0,0,0,0,0,0,0,0,0,0,0,0,0,0,0,0,0,0,0,0,0,0
853000380,Bunbeg Crossroads,55.061177,-8.300805561,An Bun Beag-Doirí Beaga,County_Donegal,0,0,0,0,0,0,0,0,0,0,0,14:07:00,0,0,0,0,0,0,0,0,0,0,0,0,0,0,0,0,0,0,0,0,0,0,0,0,0,0,0,0,0,0,0,0,0
853000116,Crolly,55.02381756,-8.26296189,N56,County_Donegal,0,0,0,0,0,0,0,0,0,0,0,14:15:00,0,0,0,0,0,0,0,0,0,0,0,0,0,0,0,0,0,0,0,0,0,0,0,0,0,0,0,0,0,0,0,0,0
853000041,Annagry,55.02203161,-8.318558521,Anagaire,County_Donegal,0,0,0,0,0,0,0,0,0,0,0,0,0,0,0,0,0,0,07:50:00,0,0,0,0,0,0,0,0,0,0,0,0,0,0,0,0,0,0,0,0,0,0,0,0,0,0
853000123,Community Hall,54.95046755,-8.358172758,An Clochán Liath,County_Donegal,0,0,0,0,0,0,0,0,0,0,0,0,0,0,0,0,0,0,08:10:00,0,0,0,0,0,0,0,0,0,0,0,0,0,0,0,0,0,0,0,0,0,0,0,0,0,0
8530B141391,Glenties,54.79514436,-8.281597518,Glenties,County_Donegal,0,0,0,0,0,0,0,0,0,0,0,0,0,0,0,0,0,0,08:40:00,0,0,0,0,0,0,0,0,0,0,0,0,0,0,0,0,0,0,0,0,0,0,0,0,0,0
853000111,Ardara,54.76198074,-8.413544782,Ardara,County_Donegal,0,0,0,0,0,0,0,0,0,0,0,0,0,0,0,0,0,0,08:45:00,0,0,0,0,0,0,0,0,0,0,0,0,0,0,0,0,0,0,0,0,0,0,0,0,0,0
853000112,Bayview Hotel,54.63655819,-8.441918352,Killybegs,County_Donegal,0,0,0,0,0,0,0,0,0,0,0,0,0,0,0,0,0,0,09:10:00,0,0,0,0,0,0,0,0,0,0,0,0,0,0,0,0,0,0,0,0,0,0,0,0,0,0
853000114,Donegal Town Garda Station,54.65240809,-8.111196295,Donegal,County_Donegal,0,0,0,0,0,0,0,0,0,0,0,0,0,0,0,0,0,0,09:45:00,0,0,0,0,0,0,0,0,0,0,0,0,0,0,0,0,0,0,0,0,0,0,0,0,0,0
846000192,Galway Cathedral,53.27527019,-9.058258628,Galway city and suburbs,County_Galway,0,0,0,0,0,0,0,0,0,0,0,09:00:00,0,0,0,0,0,0,0,0,0,0,0,0,0,0,0,0,0,0,0,0,0,0,0,0,0,0,0,0,0,0,0,0,0
847000118,Level Crossing,53.51396854,-8.856816613,Tuam,County_Galway,0,0,0,0,0,0,0,0,0,0,0,09:25:00,0,0,0,0,0,0,0,0,0,0,0,0,0,0,0,0,0,0,0,0,0,0,0,0,0,0,0,0,0,0,0,0,0
849000355,The Square,53.71981748,-8.998796407,Claremorris,County_Mayo,0,0,0,0,0,0,0,0,0,0,0,09:50:00,0,0,0,0,0,0,0,0,0,0,0,0,0,0,0,0,0,0,0,0,0,0,0,0,0,0,0,0,0,0,0,0,0
849000298,Lennons Cafe,53.79548976,-8.918462017,Knock,County_Mayo,0,0,0,0,0,0,0,0,0,0,0,10:00:00,0,0,0,0,0,0,0,0,0,0,0,0,0,0,0,0,0,0,0,0,0,0,0,0,0,0,0,0,0,0,0,0,0
849000073,Sligo Road,53.96497101,-8.795493907,Charlestown-Bellahy,County_Mayo,0,0,0,0,0,0,0,0,0,0,0,10:20:00,0,0,0,0,0,0,0,0,0,0,0,0,0,0,0,0,0,0,0,0,0,0,0,0,0,0,0,0,0,0,0,0,0
851000082,Circular Road,54.05228823,-8.73501987,Tubbercurry,County_Sligo,0,0,0,0,0,0,0,0,0,0,0,10:30:00,0,0,0,0,0,0,0,0,0,0,0,0,0,0,0,0,0,0,0,0,0,0,0,0,0,0,0,0,0,0,0,0,0
8510PB002825,Ballinacarrow,54.13407301,-8.560833001,Ballinacarrow,County_Sligo,0,0,0,0,0,0,0,0,0,0,0,10:40:00,0,0,0,0,0,0,0,0,0,0,0,0,0,0,0,0,0,0,0,0,0,0,0,0,0,0,0,0,0,0,0,0,0
851000016,Hawthorn Court,54.18198753,-8.48591071,Collooney,County_Sligo,0,0,0,0,0,0,0,0,0,0,0,10:45:00,0,0,0,0,0,0,0,0,0,0,0,0,0,0,0,0,0,0,0,0,0,0,0,0,0,0,0,0,0,0,0,0,0
851000001,Markievicz Road,54.27279054,-8.473989627,Sligo,County_Sligo,0,0,0,0,0,0,0,0,0,0,0,11:15:00,0,0,0,0,0,0,0,0,0,0,0,0,0,0,0,0,0,0,0,0,0,0,0,0,0,0,0,0,0,0,0,0,0
851000008,Grange,54.393146,-8.523263,Grange,County_Sligo,0,0,0,0,0,0,0,0,0,0,0,11:25:00,0,0,0,0,0,0,0,0,0,0,0,0,0,0,0,0,0,0,0,0,0,0,0,0,0,0,0,0,0,0,0,0,0
853000100,Bundoran Centre,54.47789538,-8.280247146,Bundoran,County_Donegal,0,0,0,0,0,0,0,0,0,0,0,11:40:00,0,0,0,0,0,0,0,0,0,0,0,0,0,0,0,0,0,0,0,0,0,0,0,0,0,0,0,0,0,0,0,0,0
853000115,Ballyshannon,54.500992,-8.189952,Ballyshannon,County_Donegal,0,0,0,0,0,0,0,0,0,0,0,11:45:00,0,0,0,0,0,0,0,0,0,0,0,0,0,0,0,0,0,0,0,0,0,0,0,0,0,0,0,0,0,0,0,0,0
853000377,Opposite Garda Station,54.65267752,-8.111336492,Donegal,County_Donegal,0,0,0,0,0,0,0,0,0,0,0,12:05:00,0,0,0,0,0,0,0,0,0,0,0,0,0,0,0,0,0,0,0,0,0,0,0,0,0,0,0,0,0,0,0,0,0
853000076,Ballybofey,54.800148,-7.778756,Ballybofey-Stranorlar,County_Donegal,0,0,0,0,0,0,0,0,0,0,0,12:30:00,0,0,0,0,0,0,0,0,0,0,0,0,0,0,0,0,0,0,0,0,0,0,0,0,0,0,0,0,0,0,0,0,0
8530LL10831,Letterkenny Bus Station,54.95414234,-7.728641489,Letterkenny,County_Donegal,0,0,0,0,0,0,0,0,0,0,0,12:50:00,0,0,0,0,0,0,0,0,0,0,0,0,0,0,0,0,0,0,0,0,0,0,0,0,0,0,0,0,0,0,0,0,0
853000087,Kilmacrennan PO,55.02965903,-7.778463717,Kilmacrennan,County_Donegal,0,0,0,0,0,0,0,0,0,0,0,13:00:00,0,0,0,0,0,0,0,0,0,0,0,0,0,0,0,0,0,0,0,0,0,0,0,0,0,0,0,0,0,0,0,0,0
853000083,Creeslough,55.12118559,-7.905407798,Creeslough,County_Donegal,0,0,0,0,0,0,0,0,0,0,0,13:15:00,0,0,0,0,0,0,0,0,0,0,0,0,0,0,0,0,0,0,0,0,0,0,0,0,0,0,0,0,0,0,0,0,0
853000080,Dunfanaghy,55.18325504,-7.971691299,Dunfanaghy,County_Donegal,0,0,0,0,0,0,0,0,0,0,0,13:25:00,0,0,0,0,0,0,0,0,0,0,0,0,0,0,0,0,0,0,0,0,0,0,0,0,0,0,0,0,0,0,0,0,0
853000378,Public Phone Box,55.13638738,-8.105041321,An Fál Carrach,County_Donegal,0,0,0,0,0,0,0,0,0,0,0,13:40:00,0,0,0,0,0,0,0,0,0,0,0,0,0,0,0,0,0,0,0,0,0,0,0,0,0,0,0,0,0,0,0,0,0
8530PB000300,Gortahork,55.12152693,-8.133126276,Gort An Choirce,County_Donegal,0,0,0,0,0,0,0,0,0,0,0,13:45:00,0,0,0,0,0,0,0,0,0,0,0,0,0,0,0,0,0,0,0,0,0,0,0,0,0,0,0,0,0,0,0,0,0
853000379,Mollys Supermarket,55.07877753,-8.289631079,An Bun Beag-Doirí Beaga,County_Donegal,0,0,0,0,0,0,0,0,0,0,0,14:05:00,0,0,0,0,0,0,0,0,0,0,0,0,0,0,0,0,0,0,0,0,0,0,0,0,0,0,0,0,0,0,0,0,0
853000380,Bunbeg Crossroads,55.061177,-8.300805561,An Bun Beag-Doirí Beaga,County_Donegal,0,0,0,0,0,0,0,0,0,0,0,14:07:00,0,0,0,0,0,0,0,0,0,0,0,0,0,0,0,0,0,0,0,0,0,0,0,0,0,0,0,0,0,0,0,0,0
853000116,Crolly,55.02381756,-8.26296189,N56,County_Donegal,0,0,0,0,0,0,0,0,0,0,0,14:15:00,0,0,0,0,0,0,0,0,0,0,0,0,0,0,0,0,0,0,0,0,0,0,0,0,0,0,0,0,0,0,0,0,0
853000116,Crolly,55.02381756,-8.26296189,N56,County_Donegal,0,0,0,0,0,0,0,0,0,0,0,0,0,0,0,0,0,0,0,10:20:00,0,0,0,0,0,0,0,0,0,0,0,0,0,0,0,0,0,0,0,0,0,0,0,0,0
853000380,Bunbeg Crossroads,55.061177,-8.300805561,An Bun Beag-Doirí Beaga,County_Donegal,0,0,0,0,0,0,0,0,0,0,0,0,0,0,0,0,0,0,0,10:30:00,0,0,0,0,0,0,0,0,0,0,0,0,0,0,0,0,0,0,0,0,0,0,0,0,0
853000379,Mollys Supermarket,55.07877753,-8.289631079,An Bun Beag-Doirí Beaga,County_Donegal,0,0,0,0,0,0,0,0,0,0,0,0,0,0,0,0,0,0,0,10:32:00,0,0,0,0,0,0,0,0,0,0,0,0,0,0,0,0,0,0,0,0,0,0,0,0,0
8530PB000302,Gortahork,55.12151803,-8.133047863,Gort An Choirce,County_Donegal,0,0,0,0,0,0,0,0,0,0,0,0,0,0,0,0,0,0,0,10:45:00,0,0,0,0,0,0,0,0,0,0,0,0,0,0,0,0,0,0,0,0,0,0,0,0,0
853000378,Public Phone Box,55.13638738,-8.105041321,An Fál Carrach,County_Donegal,0,0,0,0,0,0,0,0,0,0,0,0,0,0,0,0,0,0,0,10:50:00,0,0,0,0,0,0,0,0,0,0,0,0,0,0,0,0,0,0,0,0,0,0,0,0,0
853000051,Dunfanaghy,55.18325504,-7.971691299,Dunfanaghy,County_Donegal,0,0,0,0,0,0,0,0,0,0,0,0,0,0,0,0,0,0,0,11:00:00,0,0,0,0,0,0,0,0,0,0,0,0,0,0,0,0,0,0,0,0,0,0,0,0,0
853000081,Creeslough,55.1211044,-7.904984725,Creeslough,County_Donegal,0,0,0,0,0,0,0,0,0,0,0,0,0,0,0,0,0,0,0,11:10:00,0,0,0,0,0,0,0,0,0,0,0,0,0,0,0,0,0,0,0,0,0,0,0,0,0
853000087,Kilmacrennan PO,55.02965903,-7.778463717,Kilmacrennan,County_Donegal,0,0,0,0,0,0,0,0,0,0,0,0,0,0,0,0,0,0,0,11:20:00,0,0,0,0,0,0,0,0,0,0,0,0,0,0,0,0,0,0,0,0,0,0,0,0,0
8530LL10831,Letterkenny Bus Station,54.95414234,-7.728641489,Letterkenny,County_Donegal,0,0,0,0,0,0,0,0,0,0,0,0,0,0,0,0,0,0,0,12:00:00,0,0,0,0,0,0,0,0,0,0,0,0,0,0,0,0,0,0,0,0,0,0,0,0,0
853000113,Lower Main Street,54.8000226,-7.778897126,Ballybofey-Stranorlar,County_Donegal,0,0,0,0,0,0,0,0,0,0,0,0,0,0,0,0,0,0,0,12:15:00,0,0,0,0,0,0,0,0,0,0,0,0,0,0,0,0,0,0,0,0,0,0,0,0,0
853000114,Donegal Town Garda Station,54.65240809,-8.111196295,Donegal,County_Donegal,0,0,0,0,0,0,0,0,0,0,0,0,0,0,0,0,0,0,0,12:45:00,0,0,0,0,0,0,0,0,0,0,0,0,0,0,0,0,0,0,0,0,0,0,0,0,0
853000381,Maggies Bar,54.50028151,-8.190551028,Ballyshannon,County_Donegal,0,0,0,0,0,0,0,0,0,0,0,0,0,0,0,0,0,0,0,13:00:00,0,0,0,0,0,0,0,0,0,0,0,0,0,0,0,0,0,0,0,0,0,0,0,0,0
853000016,Main Street,54.477968,-8.279908,Bundoran,County_Donegal,0,0,0,0,0,0,0,0,0,0,0,0,0,0,0,0,0,0,0,13:05:00,0,0,0,0,0,0,0,0,0,0,0,0,0,0,0,0,0,0,0,0,0,0,0,0,0
8510B555131,Grange,54.39307357,-8.523400984,Grange,County_Sligo,0,0,0,0,0,0,0,0,0,0,0,0,0,0,0,0,0,0,0,13:15:00,0,0,0,0,0,0,0,0,0,0,0,0,0,0,0,0,0,0,0,0,0,0,0,0,0
8510B5584201,Markievicz Road,54.27262833,-8.474110589,Sligo,County_Sligo,0,0,0,0,0,0,0,0,0,0,0,0,0,0,0,0,0,0,0,14:00:00,0,0,0,0,0,0,0,0,0,0,0,0,0,0,0,0,0,0,0,0,0,0,0,0,0
851000036,Hawthorn Court,54.18200648,-8.485665822,Collooney,County_Sligo,0,0,0,0,0,0,0,0,0,0,0,0,0,0,0,0,0,0,0,14:05:00,0,0,0,0,0,0,0,0,0,0,0,0,0,0,0,0,0,0,0,0,0,0,0,0,0
8510B550211,Ballinacarrow,54.13379389,-8.560951644,Ballinacarrow,County_Sligo,0,0,0,0,0,0,0,0,0,0,0,0,0,0,0,0,0,0,0,14:10:00,0,0,0,0,0,0,0,0,0,0,0,0,0,0,0,0,0,0,0,0,0,0,0,0,0
851000082,Circular Road,54.05228823,-8.73501987,Tubbercurry,County_Sligo,0,0,0,0,0,0,0,0,0,0,0,0,0,0,0,0,0,0,0,14:20:00,0,0,0,0,0,0,0,0,0,0,0,0,0,0,0,0,0,0,0,0,0,0,0,0,0
849000277,Charlestown Square,53.96395246,-8.794605857,Charlestown-Bellahy,County_Mayo,0,0,0,0,0,0,0,0,0,0,0,0,0,0,0,0,0,0,0,14:30:00,0,0,0,0,0,0,0,0,0,0,0,0,0,0,0,0,0,0,0,0,0,0,0,0,0
849000298,Lennons Cafe,53.79548976,-8.918462017,Knock,County_Mayo,0,0,0,0,0,0,0,0,0,0,0,0,0,0,0,0,0,0,0,14:50:00,0,0,0,0,0,0,0,0,0,0,0,0,0,0,0,0,0,0,0,0,0,0,0,0,0
849000278,Main Street,53.71981786,-8.998750962,Claremorris,County_Mayo,0,0,0,0,0,0,0,0,0,0,0,0,0,0,0,0,0,0,0,15:00:00,0,0,0,0,0,0,0,0,0,0,0,0,0,0,0,0,0,0,0,0,0,0,0,0,0
847000552,Level Crossing,53.51394191,-8.856770843,Tuam,County_Galway,0,0,0,0,0,0,0,0,0,0,0,0,0,0,0,0,0,0,0,15:25:00,0,0,0,0,0,0,0,0,0,0,0,0,0,0,0,0,0,0,0,0,0,0,0,0,0
846000057,Eyre Square,53.27360079,-9.048846635,Galway city and suburbs,County_Galway,0,0,0,0,0,0,0,0,0,0,0,0,0,0,0,0,0,0,0,16:15:00,0,0,0,0,0,0,0,0,0,0,0,0,0,0,0,0,0,0,0,0,0,0,0,0,0
846000192,Galway Cathedral,53.27527019,-9.058258628,Galway city and suburbs,County_Galway,0,0,0,0,0,0,0,0,0,0,0,0,0,0,0,0,0,0,0,16:20:00,0,0,0,0,0,0,0,0,0,0,0,0,0,0,0,0,0,0,0,0,0,0,0,0,0
846000192,Galway Cathedral,53.27527019,-9.058258628,Galway city and suburbs,County_Galway,0,0,0,0,0,0,0,0,0,0,0,09:00:00,0,0,0,0,0,0,0,0,0,0,0,0,0,0,0,0,0,0,0,0,0,0,0,0,0,0,0,0,0,0,0,0,0
847000118,Level Crossing,53.51396854,-8.856816613,Tuam,County_Galway,0,0,0,0,0,0,0,0,0,0,0,09:25:00,0,0,0,0,0,0,0,0,0,0,0,0,0,0,0,0,0,0,0,0,0,0,0,0,0,0,0,0,0,0,0,0,0
849000355,The Square,53.71981748,-8.998796407,Claremorris,County_Mayo,0,0,0,0,0,0,0,0,0,0,0,09:50:00,0,0,0,0,0,0,0,0,0,0,0,0,0,0,0,0,0,0,0,0,0,0,0,0,0,0,0,0,0,0,0,0,0
849000298,Lennons Cafe,53.79548976,-8.918462017,Knock,County_Mayo,0,0,0,0,0,0,0,0,0,0,0,10:00:00,0,0,0,0,0,0,0,0,0,0,0,0,0,0,0,0,0,0,0,0,0,0,0,0,0,0,0,0,0,0,0,0,0
849000073,Sligo Road,53.96497101,-8.795493907,Charlestown-Bellahy,County_Mayo,0,0,0,0,0,0,0,0,0,0,0,10:20:00,0,0,0,0,0,0,0,0,0,0,0,0,0,0,0,0,0,0,0,0,0,0,0,0,0,0,0,0,0,0,0,0,0
851000082,Circular Road,54.05228823,-8.73501987,Tubbercurry,County_Sligo,0,0,0,0,0,0,0,0,0,0,0,10:30:00,0,0,0,0,0,0,0,0,0,0,0,0,0,0,0,0,0,0,0,0,0,0,0,0,0,0,0,0,0,0,0,0,0
8510PB002825,Ballinacarrow,54.13407301,-8.560833001,Ballinacarrow,County_Sligo,0,0,0,0,0,0,0,0,0,0,0,10:40:00,0,0,0,0,0,0,0,0,0,0,0,0,0,0,0,0,0,0,0,0,0,0,0,0,0,0,0,0,0,0,0,0,0
851000016,Hawthorn Court,54.18198753,-8.48591071,Collooney,County_Sligo,0,0,0,0,0,0,0,0,0,0,0,10:45:00,0,0,0,0,0,0,0,0,0,0,0,0,0,0,0,0,0,0,0,0,0,0,0,0,0,0,0,0,0,0,0,0,0
851000001,Markievicz Road,54.27279054,-8.473989627,Sligo,County_Sligo,0,0,0,0,0,0,0,0,0,0,0,11:15:00,0,0,0,0,0,0,0,0,0,0,0,0,0,0,0,0,0,0,0,0,0,0,0,0,0,0,0,0,0,0,0,0,0
851000008,Grange,54.393146,-8.523263,Grange,County_Sligo,0,0,0,0,0,0,0,0,0,0,0,11:25:00,0,0,0,0,0,0,0,0,0,0,0,0,0,0,0,0,0,0,0,0,0,0,0,0,0,0,0,0,0,0,0,0,0
853000100,Bundoran Centre,54.47789538,-8.280247146,Bundoran,County_Donegal,0,0,0,0,0,0,0,0,0,0,0,11:40:00,0,0,0,0,0,0,0,0,0,0,0,0,0,0,0,0,0,0,0,0,0,0,0,0,0,0,0,0,0,0,0,0,0
853000115,Ballyshannon,54.500992,-8.189952,Ballyshannon,County_Donegal,0,0,0,0,0,0,0,0,0,0,0,11:45:00,0,0,0,0,0,0,0,0,0,0,0,0,0,0,0,0,0,0,0,0,0,0,0,0,0,0,0,0,0,0,0,0,0
853000377,Opposite Garda Station,54.65267752,-8.111336492,Donegal,County_Donegal,0,0,0,0,0,0,0,0,0,0,0,12:05:00,0,0,0,0,0,0,0,0,0,0,0,0,0,0,0,0,0,0,0,0,0,0,0,0,0,0,0,0,0,0,0,0,0
853000076,Ballybofey,54.800148,-7.778756,Ballybofey-Stranorlar,County_Donegal,0,0,0,0,0,0,0,0,0,0,0,12:30:00,0,0,0,0,0,0,0,0,0,0,0,0,0,0,0,0,0,0,0,0,0,0,0,0,0,0,0,0,0,0,0,0,0
8530LL10831,Letterkenny Bus Station,54.95414234,-7.728641489,Letterkenny,County_Donegal,0,0,0,0,0,0,0,0,0,0,0,12:50:00,0,0,0,0,0,0,0,0,0,0,0,0,0,0,0,0,0,0,0,0,0,0,0,0,0,0,0,0,0,0,0,0,0
853000087,Kilmacrennan PO,55.02965903,-7.778463717,Kilmacrennan,County_Donegal,0,0,0,0,0,0,0,0,0,0,0,13:00:00,0,0,0,0,0,0,0,0,0,0,0,0,0,0,0,0,0,0,0,0,0,0,0,0,0,0,0,0,0,0,0,0,0
853000083,Creeslough,55.12118559,-7.905407798,Creeslough,County_Donegal,0,0,0,0,0,0,0,0,0,0,0,13:15:00,0,0,0,0,0,0,0,0,0,0,0,0,0,0,0,0,0,0,0,0,0,0,0,0,0,0,0,0,0,0,0,0,0
853000080,Dunfanaghy,55.18325504,-7.971691299,Dunfanaghy,County_Donegal,0,0,0,0,0,0,0,0,0,0,0,13:25:00,0,0,0,0,0,0,0,0,0,0,0,0,0,0,0,0,0,0,0,0,0,0,0,0,0,0,0,0,0,0,0,0,0
853000378,Public Phone Box,55.13638738,-8.105041321,An Fál Carrach,County_Donegal,0,0,0,0,0,0,0,0,0,0,0,13:40:00,0,0,0,0,0,0,0,0,0,0,0,0,0,0,0,0,0,0,0,0,0,0,0,0,0,0,0,0,0,0,0,0,0
8530PB000300,Gortahork,55.12152693,-8.133126276,Gort An Choirce,County_Donegal,0,0,0,0,0,0,0,0,0,0,0,13:45:00,0,0,0,0,0,0,0,0,0,0,0,0,0,0,0,0,0,0,0,0,0,0,0,0,0,0,0,0,0,0,0,0,0
853000379,Mollys Supermarket,55.07877753,-8.289631079,An Bun Beag-Doirí Beaga,County_Donegal,0,0,0,0,0,0,0,0,0,0,0,14:05:00,0,0,0,0,0,0,0,0,0,0,0,0,0,0,0,0,0,0,0,0,0,0,0,0,0,0,0,0,0,0,0,0,0
853000380,Bunbeg Crossroads,55.061177,-8.300805561,An Bun Beag-Doirí Beaga,County_Donegal,0,0,0,0,0,0,0,0,0,0,0,14:07:00,0,0,0,0,0,0,0,0,0,0,0,0,0,0,0,0,0,0,0,0,0,0,0,0,0,0,0,0,0,0,0,0,0
853000116,Crolly,55.02381756,-8.26296189,N56,County_Donegal,0,0,0,0,0,0,0,0,0,0,0,14:15:00,0,0,0,0,0,0,0,0,0,0,0,0,0,0,0,0,0,0,0,0,0,0,0,0,0,0,0,0,0,0,0,0,0
8490B5530801,Knock Airport,53.91406566,-8.81263954,Knock Airport,County_Mayo,0,0,0,0,0,0,0,0,0,0,0,0,0,0,0,0,0,0,0,0,11:20:00,0,0,0,0,0,0,0,0,0,0,0,0,0,0,0,0,0,0,0,0,0,0,0,0
849000277,Charlestown Square,53.96395246,-8.794605857,Charlestown-Bellahy,County_Mayo,0,0,0,0,0,0,0,0,0,0,0,0,0,0,0,0,0,0,0,0,11:30:00,0,0,0,0,0,0,0,0,0,0,0,0,0,0,0,0,0,0,0,0,0,0,0,0
8490B5530801,Knock Airport,53.91406566,-8.81263954,Knock Airport,County_Mayo,0,0,0,0,0,0,0,0,0,0,0,0,0,0,0,0,0,0,0,0,11:40:00,0,0,0,0,0,0,0,0,0,0,0,0,0,0,0,0,0,0,0,0,0,0,0,0
846000192,Galway Cathedral,53.27527019,-9.058258628,Galway city and suburbs,County_Galway,0,0,0,0,0,0,0,0,0,0,0,09:00:00,0,0,0,0,0,0,0,0,0,0,0,0,0,0,0,0,0,0,0,0,0,0,0,0,0,0,0,0,0,0,0,0,0
847000118,Level Crossing,53.51396854,-8.856816613,Tuam,County_Galway,0,0,0,0,0,0,0,0,0,0,0,09:25:00,0,0,0,0,0,0,0,0,0,0,0,0,0,0,0,0,0,0,0,0,0,0,0,0,0,0,0,0,0,0,0,0,0
849000355,The Square,53.71981748,-8.998796407,Claremorris,County_Mayo,0,0,0,0,0,0,0,0,0,0,0,09:50:00,0,0,0,0,0,0,0,0,0,0,0,0,0,0,0,0,0,0,0,0,0,0,0,0,0,0,0,0,0,0,0,0,0
849000298,Lennons Cafe,53.79548976,-8.918462017,Knock,County_Mayo,0,0,0,0,0,0,0,0,0,0,0,10:00:00,0,0,0,0,0,0,0,0,0,0,0,0,0,0,0,0,0,0,0,0,0,0,0,0,0,0,0,0,0,0,0,0,0
849000073,Sligo Road,53.96497101,-8.795493907,Charlestown-Bellahy,County_Mayo,0,0,0,0,0,0,0,0,0,0,0,10:20:00,0,0,0,0,0,0,0,0,0,0,0,0,0,0,0,0,0,0,0,0,0,0,0,0,0,0,0,0,0,0,0,0,0
851000082,Circular Road,54.05228823,-8.73501987,Tubbercurry,County_Sligo,0,0,0,0,0,0,0,0,0,0,0,10:30:00,0,0,0,0,0,0,0,0,0,0,0,0,0,0,0,0,0,0,0,0,0,0,0,0,0,0,0,0,0,0,0,0,0
8510PB002825,Ballinacarrow,54.13407301,-8.560833001,Ballinacarrow,County_Sligo,0,0,0,0,0,0,0,0,0,0,0,10:40:00,0,0,0,0,0,0,0,0,0,0,0,0,0,0,0,0,0,0,0,0,0,0,0,0,0,0,0,0,0,0,0,0,0
851000016,Hawthorn Court,54.18198753,-8.48591071,Collooney,County_Sligo,0,0,0,0,0,0,0,0,0,0,0,10:45:00,0,0,0,0,0,0,0,0,0,0,0,0,0,0,0,0,0,0,0,0,0,0,0,0,0,0,0,0,0,0,0,0,0
851000001,Markievicz Road,54.27279054,-8.473989627,Sligo,County_Sligo,0,0,0,0,0,0,0,0,0,0,0,11:15:00,0,0,0,0,0,0,0,0,0,0,0,0,0,0,0,0,0,0,0,0,0,0,0,0,0,0,0,0,0,0,0,0,0
851000008,Grange,54.393146,-8.523263,Grange,County_Sligo,0,0,0,0,0,0,0,0,0,0,0,11:25:00,0,0,0,0,0,0,0,0,0,0,0,0,0,0,0,0,0,0,0,0,0,0,0,0,0,0,0,0,0,0,0,0,0
853000100,Bundoran Centre,54.47789538,-8.280247146,Bundoran,County_Donegal,0,0,0,0,0,0,0,0,0,0,0,11:40:00,0,0,0,0,0,0,0,0,0,0,0,0,0,0,0,0,0,0,0,0,0,0,0,0,0,0,0,0,0,0,0,0,0
853000115,Ballyshannon,54.500992,-8.189952,Ballyshannon,County_Donegal,0,0,0,0,0,0,0,0,0,0,0,11:45:00,0,0,0,0,0,0,0,0,0,0,0,0,0,0,0,0,0,0,0,0,0,0,0,0,0,0,0,0,0,0,0,0,0
853000377,Opposite Garda Station,54.65267752,-8.111336492,Donegal,County_Donegal,0,0,0,0,0,0,0,0,0,0,0,12:05:00,0,0,0,0,0,0,0,0,0,0,0,0,0,0,0,0,0,0,0,0,0,0,0,0,0,0,0,0,0,0,0,0,0
853000076,Ballybofey,54.800148,-7.778756,Ballybofey-Stranorlar,County_Donegal,0,0,0,0,0,0,0,0,0,0,0,12:30:00,0,0,0,0,0,0,0,0,0,0,0,0,0,0,0,0,0,0,0,0,0,0,0,0,0,0,0,0,0,0,0,0,0
8530LL10831,Letterkenny Bus Station,54.95414234,-7.728641489,Letterkenny,County_Donegal,0,0,0,0,0,0,0,0,0,0,0,12:50:00,0,0,0,0,0,0,0,0,0,0,0,0,0,0,0,0,0,0,0,0,0,0,0,0,0,0,0,0,0,0,0,0,0
853000087,Kilmacrennan PO,55.02965903,-7.778463717,Kilmacrennan,County_Donegal,0,0,0,0,0,0,0,0,0,0,0,13:00:00,0,0,0,0,0,0,0,0,0,0,0,0,0,0,0,0,0,0,0,0,0,0,0,0,0,0,0,0,0,0,0,0,0
853000083,Creeslough,55.12118559,-7.905407798,Creeslough,County_Donegal,0,0,0,0,0,0,0,0,0,0,0,13:15:00,0,0,0,0,0,0,0,0,0,0,0,0,0,0,0,0,0,0,0,0,0,0,0,0,0,0,0,0,0,0,0,0,0
853000080,Dunfanaghy,55.18325504,-7.971691299,Dunfanaghy,County_Donegal,0,0,0,0,0,0,0,0,0,0,0,13:25:00,0,0,0,0,0,0,0,0,0,0,0,0,0,0,0,0,0,0,0,0,0,0,0,0,0,0,0,0,0,0,0,0,0
853000378,Public Phone Box,55.13638738,-8.105041321,An Fál Carrach,County_Donegal,0,0,0,0,0,0,0,0,0,0,0,13:40:00,0,0,0,0,0,0,0,0,0,0,0,0,0,0,0,0,0,0,0,0,0,0,0,0,0,0,0,0,0,0,0,0,0
8530PB000300,Gortahork,55.12152693,-8.133126276,Gort An Choirce,County_Donegal,0,0,0,0,0,0,0,0,0,0,0,13:45:00,0,0,0,0,0,0,0,0,0,0,0,0,0,0,0,0,0,0,0,0,0,0,0,0,0,0,0,0,0,0,0,0,0
853000379,Mollys Supermarket,55.07877753,-8.289631079,An Bun Beag-Doirí Beaga,County_Donegal,0,0,0,0,0,0,0,0,0,0,0,14:05:00,0,0,0,0,0,0,0,0,0,0,0,0,0,0,0,0,0,0,0,0,0,0,0,0,0,0,0,0,0,0,0,0,0
853000380,Bunbeg Crossroads,55.061177,-8.300805561,An Bun Beag-Doirí Beaga,County_Donegal,0,0,0,0,0,0,0,0,0,0,0,14:07:00,0,0,0,0,0,0,0,0,0,0,0,0,0,0,0,0,0,0,0,0,0,0,0,0,0,0,0,0,0,0,0,0,0
853000116,Crolly,55.02381756,-8.26296189,N56,County_Donegal,0,0,0,0,0,0,0,0,0,0,0,14:15:00,0,0,0,0,0,0,0,0,0,0,0,0,0,0,0,0,0,0,0,0,0,0,0,0,0,0,0,0,0,0,0,0,0
8490B5530801,Knock Airport,53.91406566,-8.81263954,Knock Airport,County_Mayo,0,0,0,0,0,0,0,0,0,0,0,0,0,0,0,0,0,0,0,0,0,11:20:00,0,0,0,0,0,0,0,0,0,0,0,0,0,0,0,0,0,0,0,0,0,0,0
849000277,Charlestown Square,53.96395246,-8.794605857,Charlestown-Bellahy,County_Mayo,0,0,0,0,0,0,0,0,0,0,0,0,0,0,0,0,0,0,0,0,0,11:30:00,0,0,0,0,0,0,0,0,0,0,0,0,0,0,0,0,0,0,0,0,0,0,0
8490B5530801,Knock Airport,53.91406566,-8.81263954,Knock Airport,County_Mayo,0,0,0,0,0,0,0,0,0,0,0,0,0,0,0,0,0,0,0,0,0,11:40:00,0,0,0,0,0,0,0,0,0,0,0,0,0,0,0,0,0,0,0,0,0,0,0
8490B5530801,Knock Airport,53.91406566,-8.81263954,Knock Airport,County_Mayo,0,0,0,0,0,0,0,0,0,0,0,0,0,0,0,0,0,0,0,0,0,0,10:10:00,0,0,0,0,0,0,0,0,0,0,0,0,0,0,0,0,0,0,0,0,0,0
8490B141641,Market Square,53.96396871,-8.794865239,Charlestown-Bellahy,County_Mayo,0,0,0,0,0,0,0,0,0,0,0,0,0,0,0,0,0,0,0,0,0,0,10:20:00,0,0,0,0,0,0,0,0,0,0,0,0,0,0,0,0,0,0,0,0,0,0
8490B5530801,Knock Airport,53.91406566,-8.81263954,Knock Airport,County_Mayo,0,0,0,0,0,0,0,0,0,0,0,0,0,0,0,0,0,0,0,0,0,0,10:30:00,0,0,0,0,0,0,0,0,0,0,0,0,0,0,0,0,0,0,0,0,0,0
8490B5530801,Knock Airport,53.91406566,-8.81263954,Knock Airport,County_Mayo,0,0,0,0,0,0,0,0,0,0,0,0,0,0,0,0,0,0,0,0,0,0,10:10:00,0,0,0,0,0,0,0,0,0,0,0,0,0,0,0,0,0,0,0,0,0,0
8490B141641,Market Square,53.96396871,-8.794865239,Charlestown-Bellahy,County_Mayo,0,0,0,0,0,0,0,0,0,0,0,0,0,0,0,0,0,0,0,0,0,0,10:20:00,0,0,0,0,0,0,0,0,0,0,0,0,0,0,0,0,0,0,0,0,0,0
8490B5530801,Knock Airport,53.91406566,-8.81263954,Knock Airport,County_Mayo,0,0,0,0,0,0,0,0,0,0,0,0,0,0,0,0,0,0,0,0,0,0,10:30:00,0,0,0,0,0,0,0,0,0,0,0,0,0,0,0,0,0,0,0,0,0,0
8490B5530801,Knock Airport,53.91406566,-8.81263954,Knock Airport,County_Mayo,0,0,0,0,0,0,0,0,0,0,0,0,0,0,0,0,0,0,0,0,0,0,0,11:20:00,0,0,0,0,0,0,0,0,0,0,0,0,0,0,0,0,0,0,0,0,0
849000277,Charlestown Square,53.96395246,-8.794605857,Charlestown-Bellahy,County_Mayo,0,0,0,0,0,0,0,0,0,0,0,0,0,0,0,0,0,0,0,0,0,0,0,11:30:00,0,0,0,0,0,0,0,0,0,0,0,0,0,0,0,0,0,0,0,0,0
8490B5530801,Knock Airport,53.91406566,-8.81263954,Knock Airport,County_Mayo,0,0,0,0,0,0,0,0,0,0,0,0,0,0,0,0,0,0,0,0,0,0,0,11:40:00,0,0,0,0,0,0,0,0,0,0,0,0,0,0,0,0,0,0,0,0,0
8490B5530801,Knock Airport,53.91406566,-8.81263954,Knock Airport,County_Mayo,0,0,0,0,0,0,0,0,0,0,0,0,0,0,0,0,0,0,0,0,0,0,10:10:00,0,0,0,0,0,0,0,0,0,0,0,0,0,0,0,0,0,0,0,0,0,0
8490B141641,Market Square,53.96396871,-8.794865239,Charlestown-Bellahy,County_Mayo,0,0,0,0,0,0,0,0,0,0,0,0,0,0,0,0,0,0,0,0,0,0,10:20:00,0,0,0,0,0,0,0,0,0,0,0,0,0,0,0,0,0,0,0,0,0,0
8490B5530801,Knock Airport,53.91406566,-8.81263954,Knock Airport,County_Mayo,0,0,0,0,0,0,0,0,0,0,0,0,0,0,0,0,0,0,0,0,0,0,10:30:00,0,0,0,0,0,0,0,0,0,0,0,0,0,0,0,0,0,0,0,0,0,0
851000035,Knocknarea,54.27850311,-8.463014861,Sligo,County_Sligo,0,0,0,0,0,0,0,0,0,0,0,0,0,0,0,0,0,0,0,0,0,0,0,0,13:00:00,0,0,0,0,0,0,0,0,0,0,0,0,0,0,0,0,0,0,0,0
8510B5584201,Markievicz Road,54.27262833,-8.474110589,Sligo,County_Sligo,0,0,0,0,0,0,0,0,0,0,0,0,0,0,0,0,0,0,0,0,0,0,0,0,13:05:00,0,0,0,0,0,0,0,0,0,0,0,0,0,0,0,0,0,0,0,0
851000036,Hawthorn Court,54.18200648,-8.485665822,Collooney,County_Sligo,0,0,0,0,0,0,0,0,0,0,0,0,0,0,0,0,0,0,0,0,0,0,0,0,13:10:00,0,0,0,0,0,0,0,0,0,0,0,0,0,0,0,0,0,0,0,0
8510B550211,Ballinacarrow,54.13379389,-8.560951644,Ballinacarrow,County_Sligo,0,0,0,0,0,0,0,0,0,0,0,0,0,0,0,0,0,0,0,0,0,0,0,0,13:15:00,0,0,0,0,0,0,0,0,0,0,0,0,0,0,0,0,0,0,0,0
851000082,Circular Road,54.05228823,-8.73501987,Tubbercurry,County_Sligo,0,0,0,0,0,0,0,0,0,0,0,0,0,0,0,0,0,0,0,0,0,0,0,0,13:25:00,0,0,0,0,0,0,0,0,0,0,0,0,0,0,0,0,0,0,0,0
849000277,Charlestown Square,53.96395246,-8.794605857,Charlestown-Bellahy,County_Mayo,0,0,0,0,0,0,0,0,0,0,0,0,0,0,0,0,0,0,0,0,0,0,0,0,13:35:00,0,0,0,0,0,0,0,0,0,0,0,0,0,0,0,0,0,0,0,0
849000298,Lennons Cafe,53.79548976,-8.918462017,Knock,County_Mayo,0,0,0,0,0,0,0,0,0,0,0,0,0,0,0,0,0,0,0,0,0,0,0,0,13:55:00,0,0,0,0,0,0,0,0,0,0,0,0,0,0,0,0,0,0,0,0
849000278,Main Street,53.71981786,-8.998750962,Claremorris,County_Mayo,0,0,0,0,0,0,0,0,0,0,0,0,0,0,0,0,0,0,0,0,0,0,0,0,14:05:00,0,0,0,0,0,0,0,0,0,0,0,0,0,0,0,0,0,0,0,0
847000552,Level Crossing,53.51394191,-8.856770843,Tuam,County_Galway,0,0,0,0,0,0,0,0,0,0,0,0,0,0,0,0,0,0,0,0,0,0,0,0,14:30:00,0,0,0,0,0,0,0,0,0,0,0,0,0,0,0,0,0,0,0,0
846000057,Eyre Square,53.27360079,-9.048846635,Galway city and suburbs,County_Galway,0,0,0,0,0,0,0,0,0,0,0,0,0,0,0,0,0,0,0,0,0,0,0,0,15:10:00,0,0,0,0,0,0,0,0,0,0,0,0,0,0,0,0,0,0,0,0
846000192,Galway Cathedral,53.27527019,-9.058258628,Galway city and suburbs,County_Galway,0,0,0,0,0,0,0,0,0,0,0,0,0,0,0,0,0,0,0,0,0,0,0,0,15:15:00,0,0,0,0,0,0,0,0,0,0,0,0,0,0,0,0,0,0,0,0
8490B5530801,Knock Airport,53.91406566,-8.81263954,Knock Airport,County_Mayo,0,0,0,0,0,0,0,0,0,0,0,0,0,0,0,0,0,0,0,0,0,0,10:10:00,0,0,0,0,0,0,0,0,0,0,0,0,0,0,0,0,0,0,0,0,0,0
8490B141641,Market Square,53.96396871,-8.794865239,Charlestown-Bellahy,County_Mayo,0,0,0,0,0,0,0,0,0,0,0,0,0,0,0,0,0,0,0,0,0,0,10:20:00,0,0,0,0,0,0,0,0,0,0,0,0,0,0,0,0,0,0,0,0,0,0
8490B5530801,Knock Airport,53.91406566,-8.81263954,Knock Airport,County_Mayo,0,0,0,0,0,0,0,0,0,0,0,0,0,0,0,0,0,0,0,0,0,0,10:30:00,0,0,0,0,0,0,0,0,0,0,0,0,0,0,0,0,0,0,0,0,0,0
853000116,Crolly,55.02381756,-8.26296189,N56,County_Donegal,0,0,0,0,0,0,0,0,0,0,0,0,0,0,0,0,0,0,0,0,0,0,0,0,0,13:50:00,0,0,0,0,0,0,0,0,0,0,0,0,0,0,0,0,0,0,0
853000380,Bunbeg Crossroads,55.061177,-8.300805561,An Bun Beag-Doirí Beaga,County_Donegal,0,0,0,0,0,0,0,0,0,0,0,0,0,0,0,0,0,0,0,0,0,0,0,0,0,14:00:00,0,0,0,0,0,0,0,0,0,0,0,0,0,0,0,0,0,0,0
853000379,Mollys Supermarket,55.07877753,-8.289631079,An Bun Beag-Doirí Beaga,County_Donegal,0,0,0,0,0,0,0,0,0,0,0,0,0,0,0,0,0,0,0,0,0,0,0,0,0,14:02:00,0,0,0,0,0,0,0,0,0,0,0,0,0,0,0,0,0,0,0
8530PB000302,Gortahork,55.12151803,-8.133047863,Gort An Choirce,County_Donegal,0,0,0,0,0,0,0,0,0,0,0,0,0,0,0,0,0,0,0,0,0,0,0,0,0,14:15:00,0,0,0,0,0,0,0,0,0,0,0,0,0,0,0,0,0,0,0
853000378,Public Phone Box,55.13638738,-8.105041321,An Fál Carrach,County_Donegal,0,0,0,0,0,0,0,0,0,0,0,0,0,0,0,0,0,0,0,0,0,0,0,0,0,14:20:00,0,0,0,0,0,0,0,0,0,0,0,0,0,0,0,0,0,0,0
853000051,Dunfanaghy,55.18325504,-7.971691299,Dunfanaghy,County_Donegal,0,0,0,0,0,0,0,0,0,0,0,0,0,0,0,0,0,0,0,0,0,0,0,0,0,14:30:00,0,0,0,0,0,0,0,0,0,0,0,0,0,0,0,0,0,0,0
853000081,Creeslough,55.1211044,-7.904984725,Creeslough,County_Donegal,0,0,0,0,0,0,0,0,0,0,0,0,0,0,0,0,0,0,0,0,0,0,0,0,0,14:40:00,0,0,0,0,0,0,0,0,0,0,0,0,0,0,0,0,0,0,0
853000087,Kilmacrennan PO,55.02965903,-7.778463717,Kilmacrennan,County_Donegal,0,0,0,0,0,0,0,0,0,0,0,0,0,0,0,0,0,0,0,0,0,0,0,0,0,14:50:00,0,0,0,0,0,0,0,0,0,0,0,0,0,0,0,0,0,0,0
8530LL10831,Letterkenny Bus Station,54.95414234,-7.728641489,Letterkenny,County_Donegal,0,0,0,0,0,0,0,0,0,0,0,0,0,0,0,0,0,0,0,0,0,0,0,0,0,15:30:00,0,0,0,0,0,0,0,0,0,0,0,0,0,0,0,0,0,0,0
853000113,Lower Main Street,54.8000226,-7.778897126,Ballybofey-Stranorlar,County_Donegal,0,0,0,0,0,0,0,0,0,0,0,0,0,0,0,0,0,0,0,0,0,0,0,0,0,15:45:00,0,0,0,0,0,0,0,0,0,0,0,0,0,0,0,0,0,0,0
853000114,Donegal Town Garda Station,54.65240809,-8.111196295,Donegal,County_Donegal,0,0,0,0,0,0,0,0,0,0,0,0,0,0,0,0,0,0,0,0,0,0,0,0,0,16:15:00,0,0,0,0,0,0,0,0,0,0,0,0,0,0,0,0,0,0,0
853000381,Maggies Bar,54.50028151,-8.190551028,Ballyshannon,County_Donegal,0,0,0,0,0,0,0,0,0,0,0,0,0,0,0,0,0,0,0,0,0,0,0,0,0,16:30:00,0,0,0,0,0,0,0,0,0,0,0,0,0,0,0,0,0,0,0
853000016,Main Street,54.477968,-8.279908,Bundoran,County_Donegal,0,0,0,0,0,0,0,0,0,0,0,0,0,0,0,0,0,0,0,0,0,0,0,0,0,16:35:00,0,0,0,0,0,0,0,0,0,0,0,0,0,0,0,0,0,0,0
8510B555131,Grange,54.39307357,-8.523400984,Grange,County_Sligo,0,0,0,0,0,0,0,0,0,0,0,0,0,0,0,0,0,0,0,0,0,0,0,0,0,16:45:00,0,0,0,0,0,0,0,0,0,0,0,0,0,0,0,0,0,0,0
8510B5584201,Markievicz Road,54.27262833,-8.474110589,Sligo,County_Sligo,0,0,0,0,0,0,0,0,0,0,0,0,0,0,0,0,0,0,0,0,0,0,0,0,0,17:30:00,0,0,0,0,0,0,0,0,0,0,0,0,0,0,0,0,0,0,0
851000036,Hawthorn Court,54.18200648,-8.485665822,Collooney,County_Sligo,0,0,0,0,0,0,0,0,0,0,0,0,0,0,0,0,0,0,0,0,0,0,0,0,0,17:35:00,0,0,0,0,0,0,0,0,0,0,0,0,0,0,0,0,0,0,0
8510B550211,Ballinacarrow,54.13379389,-8.560951644,Ballinacarrow,County_Sligo,0,0,0,0,0,0,0,0,0,0,0,0,0,0,0,0,0,0,0,0,0,0,0,0,0,17:40:00,0,0,0,0,0,0,0,0,0,0,0,0,0,0,0,0,0,0,0
851000082,Circular Road,54.05228823,-8.73501987,Tubbercurry,County_Sligo,0,0,0,0,0,0,0,0,0,0,0,0,0,0,0,0,0,0,0,0,0,0,0,0,0,17:50:00,0,0,0,0,0,0,0,0,0,0,0,0,0,0,0,0,0,0,0
849000277,Charlestown Square,53.96395246,-8.794605857,Charlestown-Bellahy,County_Mayo,0,0,0,0,0,0,0,0,0,0,0,0,0,0,0,0,0,0,0,0,0,0,0,0,0,18:00:00,0,0,0,0,0,0,0,0,0,0,0,0,0,0,0,0,0,0,0
849000298,Lennons Cafe,53.79548976,-8.918462017,Knock,County_Mayo,0,0,0,0,0,0,0,0,0,0,0,0,0,0,0,0,0,0,0,0,0,0,0,0,0,18:20:00,0,0,0,0,0,0,0,0,0,0,0,0,0,0,0,0,0,0,0
849000278,Main Street,53.71981786,-8.998750962,Claremorris,County_Mayo,0,0,0,0,0,0,0,0,0,0,0,0,0,0,0,0,0,0,0,0,0,0,0,0,0,18:30:00,0,0,0,0,0,0,0,0,0,0,0,0,0,0,0,0,0,0,0
847000552,Level Crossing,53.51394191,-8.856770843,Tuam,County_Galway,0,0,0,0,0,0,0,0,0,0,0,0,0,0,0,0,0,0,0,0,0,0,0,0,0,18:55:00,0,0,0,0,0,0,0,0,0,0,0,0,0,0,0,0,0,0,0
847000078,West Wing Restaurant,53.50696306,-8.880946428,West Wing Restaurant,County_Galway,0,0,0,0,0,0,0,0,0,0,0,0,0,0,0,0,0,0,0,0,0,0,0,0,0,19:00:00,0,0,0,0,0,0,0,0,0,0,0,0,0,0,0,0,0,0,0
846000057,Eyre Square,53.27360079,-9.048846635,Galway city and suburbs,County_Galway,0,0,0,0,0,0,0,0,0,0,0,0,0,0,0,0,0,0,0,0,0,0,0,0,0,19:40:00,0,0,0,0,0,0,0,0,0,0,0,0,0,0,0,0,0,0,0
846000192,Galway Cathedral,53.27527019,-9.058258628,Galway city and suburbs,County_Galway,0,0,0,0,0,0,0,0,0,0,0,0,0,0,0,0,0,0,0,0,0,0,0,0,0,19:45:00,0,0,0,0,0,0,0,0,0,0,0,0,0,0,0,0,0,0,0
8490B5530801,Knock Airport,53.91406566,-8.81263954,Knock Airport,County_Mayo,0,0,0,0,0,0,0,0,0,0,0,0,0,0,0,0,0,0,0,0,0,0,10:10:00,0,0,0,0,0,0,0,0,0,0,0,0,0,0,0,0,0,0,0,0,0,0
8490B141641,Market Square,53.96396871,-8.794865239,Charlestown-Bellahy,County_Mayo,0,0,0,0,0,0,0,0,0,0,0,0,0,0,0,0,0,0,0,0,0,0,10:20:00,0,0,0,0,0,0,0,0,0,0,0,0,0,0,0,0,0,0,0,0,0,0
8490B5530801,Knock Airport,53.91406566,-8.81263954,Knock Airport,County_Mayo,0,0,0,0,0,0,0,0,0,0,0,0,0,0,0,0,0,0,0,0,0,0,10:30:00,0,0,0,0,0,0,0,0,0,0,0,0,0,0,0,0,0,0,0,0,0,0
8490B5530801,Knock Airport,53.91406566,-8.81263954,Knock Airport,County_Mayo,0,0,0,0,0,0,0,0,0,0,0,0,0,0,0,0,0,0,0,0,0,0,0,0,0,0,14:20:00,0,0,0,0,0,0,0,0,0,0,0,0,0,0,0,0,0,0
849000277,Charlestown Square,53.96395246,-8.794605857,Charlestown-Bellahy,County_Mayo,0,0,0,0,0,0,0,0,0,0,0,0,0,0,0,0,0,0,0,0,0,0,0,0,0,0,14:30:00,0,0,0,0,0,0,0,0,0,0,0,0,0,0,0,0,0,0
8490B5530801,Knock Airport,53.91406566,-8.81263954,Knock Airport,County_Mayo,0,0,0,0,0,0,0,0,0,0,0,0,0,0,0,0,0,0,0,0,0,0,0,0,0,0,14:40:00,0,0,0,0,0,0,0,0,0,0,0,0,0,0,0,0,0,0
8490B5530801,Knock Airport,53.91406566,-8.81263954,Knock Airport,County_Mayo,0,0,0,0,0,0,0,0,0,0,0,0,0,0,0,0,0,0,0,0,0,0,10:10:00,0,0,0,0,0,0,0,0,0,0,0,0,0,0,0,0,0,0,0,0,0,0
8490B141641,Market Square,53.96396871,-8.794865239,Charlestown-Bellahy,County_Mayo,0,0,0,0,0,0,0,0,0,0,0,0,0,0,0,0,0,0,0,0,0,0,10:20:00,0,0,0,0,0,0,0,0,0,0,0,0,0,0,0,0,0,0,0,0,0,0
8490B5530801,Knock Airport,53.91406566,-8.81263954,Knock Airport,County_Mayo,0,0,0,0,0,0,0,0,0,0,0,0,0,0,0,0,0,0,0,0,0,0,10:30:00,0,0,0,0,0,0,0,0,0,0,0,0,0,0,0,0,0,0,0,0,0,0
853000041,Annagry,55.02203161,-8.318558521,Anagaire,County_Donegal,0,0,0,0,0,0,0,0,0,0,0,0,0,0,0,0,0,0,0,0,0,0,0,0,0,0,0,14:20:00,0,0,0,0,0,0,0,0,0,0,0,0,0,0,0,0,0
853000123,Community Hall,54.95046755,-8.358172758,An Clochán Liath,County_Donegal,0,0,0,0,0,0,0,0,0,0,0,0,0,0,0,0,0,0,0,0,0,0,0,0,0,0,0,14:40:00,0,0,0,0,0,0,0,0,0,0,0,0,0,0,0,0,0
8530B141391,Glenties,54.79514436,-8.281597518,Glenties,County_Donegal,0,0,0,0,0,0,0,0,0,0,0,0,0,0,0,0,0,0,0,0,0,0,0,0,0,0,0,15:15:00,0,0,0,0,0,0,0,0,0,0,0,0,0,0,0,0,0
853000111,Ardara,54.76198074,-8.413544782,Ardara,County_Donegal,0,0,0,0,0,0,0,0,0,0,0,0,0,0,0,0,0,0,0,0,0,0,0,0,0,0,0,15:20:00,0,0,0,0,0,0,0,0,0,0,0,0,0,0,0,0,0
853000112,Bayview Hotel,54.63655819,-8.441918352,Killybegs,County_Donegal,0,0,0,0,0,0,0,0,0,0,0,0,0,0,0,0,0,0,0,0,0,0,0,0,0,0,0,15:45:00,0,0,0,0,0,0,0,0,0,0,0,0,0,0,0,0,0
853000114,Donegal Town Garda Station,54.65240809,-8.111196295,Donegal,County_Donegal,0,0,0,0,0,0,0,0,0,0,0,0,0,0,0,0,0,0,0,0,0,0,0,0,0,0,0,16:15:00,0,0,0,0,0,0,0,0,0,0,0,0,0,0,0,0,0
8490B5530801,Knock Airport,53.91406566,-8.81263954,Knock Airport,County_Mayo,0,0,0,0,0,0,0,0,0,0,0,0,0,0,0,0,0,0,0,0,0,0,10:10:00,0,0,0,0,0,0,0,0,0,0,0,0,0,0,0,0,0,0,0,0,0,0
8490B141641,Market Square,53.96396871,-8.794865239,Charlestown-Bellahy,County_Mayo,0,0,0,0,0,0,0,0,0,0,0,0,0,0,0,0,0,0,0,0,0,0,10:20:00,0,0,0,0,0,0,0,0,0,0,0,0,0,0,0,0,0,0,0,0,0,0
8490B5530801,Knock Airport,53.91406566,-8.81263954,Knock Airport,County_Mayo,0,0,0,0,0,0,0,0,0,0,0,0,0,0,0,0,0,0,0,0,0,0,10:30:00,0,0,0,0,0,0,0,0,0,0,0,0,0,0,0,0,0,0,0,0,0,0
853000116,Crolly,55.02381756,-8.26296189,N56,County_Donegal,0,0,0,0,0,0,0,0,0,0,0,0,0,0,0,0,0,0,0,0,0,0,0,0,0,0,0,0,14:45:00,0,0,0,0,0,0,0,0,0,0,0,0,0,0,0,0
853000380,Bunbeg Crossroads,55.061177,-8.300805561,An Bun Beag-Doirí Beaga,County_Donegal,0,0,0,0,0,0,0,0,0,0,0,0,0,0,0,0,0,0,0,0,0,0,0,0,0,0,0,0,14:55:00,0,0,0,0,0,0,0,0,0,0,0,0,0,0,0,0
853000379,Mollys Supermarket,55.07877753,-8.289631079,An Bun Beag-Doirí Beaga,County_Donegal,0,0,0,0,0,0,0,0,0,0,0,0,0,0,0,0,0,0,0,0,0,0,0,0,0,0,0,0,14:57:00,0,0,0,0,0,0,0,0,0,0,0,0,0,0,0,0
8530PB000302,Gortahork,55.12151803,-8.133047863,Gort An Choirce,County_Donegal,0,0,0,0,0,0,0,0,0,0,0,0,0,0,0,0,0,0,0,0,0,0,0,0,0,0,0,0,15:10:00,0,0,0,0,0,0,0,0,0,0,0,0,0,0,0,0
853000378,Public Phone Box,55.13638738,-8.105041321,An Fál Carrach,County_Donegal,0,0,0,0,0,0,0,0,0,0,0,0,0,0,0,0,0,0,0,0,0,0,0,0,0,0,0,0,15:15:00,0,0,0,0,0,0,0,0,0,0,0,0,0,0,0,0
853000051,Dunfanaghy,55.18325504,-7.971691299,Dunfanaghy,County_Donegal,0,0,0,0,0,0,0,0,0,0,0,0,0,0,0,0,0,0,0,0,0,0,0,0,0,0,0,0,15:25:00,0,0,0,0,0,0,0,0,0,0,0,0,0,0,0,0
853000081,Creeslough,55.1211044,-7.904984725,Creeslough,County_Donegal,0,0,0,0,0,0,0,0,0,0,0,0,0,0,0,0,0,0,0,0,0,0,0,0,0,0,0,0,15:40:00,0,0,0,0,0,0,0,0,0,0,0,0,0,0,0,0
853000087,Kilmacrennan PO,55.02965903,-7.778463717,Kilmacrennan,County_Donegal,0,0,0,0,0,0,0,0,0,0,0,0,0,0,0,0,0,0,0,0,0,0,0,0,0,0,0,0,15:50:00,0,0,0,0,0,0,0,0,0,0,0,0,0,0,0,0
8530LL10831,Letterkenny Bus Station,54.95414234,-7.728641489,Letterkenny,County_Donegal,0,0,0,0,0,0,0,0,0,0,0,0,0,0,0,0,0,0,0,0,0,0,0,0,0,0,0,0,16:30:00,0,0,0,0,0,0,0,0,0,0,0,0,0,0,0,0
853000113,Lower Main Street,54.8000226,-7.778897126,Ballybofey-Stranorlar,County_Donegal,0,0,0,0,0,0,0,0,0,0,0,0,0,0,0,0,0,0,0,0,0,0,0,0,0,0,0,0,16:45:00,0,0,0,0,0,0,0,0,0,0,0,0,0,0,0,0
853000114,Donegal Town Garda Station,54.65240809,-8.111196295,Donegal,County_Donegal,0,0,0,0,0,0,0,0,0,0,0,0,0,0,0,0,0,0,0,0,0,0,0,0,0,0,0,0,17:15:00,0,0,0,0,0,0,0,0,0,0,0,0,0,0,0,0
853000381,Maggies Bar,54.50028151,-8.190551028,Ballyshannon,County_Donegal,0,0,0,0,0,0,0,0,0,0,0,0,0,0,0,0,0,0,0,0,0,0,0,0,0,0,0,0,17:30:00,0,0,0,0,0,0,0,0,0,0,0,0,0,0,0,0
853000016,Main Street,54.477968,-8.279908,Bundoran,County_Donegal,0,0,0,0,0,0,0,0,0,0,0,0,0,0,0,0,0,0,0,0,0,0,0,0,0,0,0,0,17:35:00,0,0,0,0,0,0,0,0,0,0,0,0,0,0,0,0
8510B555131,Grange,54.39307357,-8.523400984,Grange,County_Sligo,0,0,0,0,0,0,0,0,0,0,0,0,0,0,0,0,0,0,0,0,0,0,0,0,0,0,0,0,17:45:00,0,0,0,0,0,0,0,0,0,0,0,0,0,0,0,0
8510B5584201,Markievicz Road,54.27262833,-8.474110589,Sligo,County_Sligo,0,0,0,0,0,0,0,0,0,0,0,0,0,0,0,0,0,0,0,0,0,0,0,0,0,0,0,0,18:15:00,0,0,0,0,0,0,0,0,0,0,0,0,0,0,0,0
851000036,Hawthorn Court,54.18200648,-8.485665822,Collooney,County_Sligo,0,0,0,0,0,0,0,0,0,0,0,0,0,0,0,0,0,0,0,0,0,0,0,0,0,0,0,0,18:35:00,0,0,0,0,0,0,0,0,0,0,0,0,0,0,0,0
8510B550211,Ballinacarrow,54.13379389,-8.560951644,Ballinacarrow,County_Sligo,0,0,0,0,0,0,0,0,0,0,0,0,0,0,0,0,0,0,0,0,0,0,0,0,0,0,0,0,18:40:00,0,0,0,0,0,0,0,0,0,0,0,0,0,0,0,0
851000082,Circular Road,54.05228823,-8.73501987,Tubbercurry,County_Sligo,0,0,0,0,0,0,0,0,0,0,0,0,0,0,0,0,0,0,0,0,0,0,0,0,0,0,0,0,18:50:00,0,0,0,0,0,0,0,0,0,0,0,0,0,0,0,0
849000277,Charlestown Square,53.96395246,-8.794605857,Charlestown-Bellahy,County_Mayo,0,0,0,0,0,0,0,0,0,0,0,0,0,0,0,0,0,0,0,0,0,0,0,0,0,0,0,0,19:00:00,0,0,0,0,0,0,0,0,0,0,0,0,0,0,0,0
849000298,Lennons Cafe,53.79548976,-8.918462017,Knock,County_Mayo,0,0,0,0,0,0,0,0,0,0,0,0,0,0,0,0,0,0,0,0,0,0,0,0,0,0,0,0,19:20:00,0,0,0,0,0,0,0,0,0,0,0,0,0,0,0,0
849000278,Main Street,53.71981786,-8.998750962,Claremorris,County_Mayo,0,0,0,0,0,0,0,0,0,0,0,0,0,0,0,0,0,0,0,0,0,0,0,0,0,0,0,0,19:30:00,0,0,0,0,0,0,0,0,0,0,0,0,0,0,0,0
847000552,Level Crossing,53.51394191,-8.856770843,Tuam,County_Galway,0,0,0,0,0,0,0,0,0,0,0,0,0,0,0,0,0,0,0,0,0,0,0,0,0,0,0,0,19:55:00,0,0,0,0,0,0,0,0,0,0,0,0,0,0,0,0
846000057,Eyre Square,53.27360079,-9.048846635,Galway city and suburbs,County_Galway,0,0,0,0,0,0,0,0,0,0,0,0,0,0,0,0,0,0,0,0,0,0,0,0,0,0,0,0,20:40:00,0,0,0,0,0,0,0,0,0,0,0,0,0,0,0,0
846000192,Galway Cathedral,53.27527019,-9.058258628,Galway city and suburbs,County_Galway,0,0,0,0,0,0,0,0,0,0,0,0,0,0,0,0,0,0,0,0,0,0,0,0,0,0,0,0,20:45:00,0,0,0,0,0,0,0,0,0,0,0,0,0,0,0,0
8490B5530801,Knock Airport,53.91406566,-8.81263954,Knock Airport,County_Mayo,0,0,0,0,0,0,0,0,0,0,0,0,0,0,0,0,0,0,0,0,0,0,10:10:00,0,0,0,0,0,0,0,0,0,0,0,0,0,0,0,0,0,0,0,0,0,0
8490B141641,Market Square,53.96396871,-8.794865239,Charlestown-Bellahy,County_Mayo,0,0,0,0,0,0,0,0,0,0,0,0,0,0,0,0,0,0,0,0,0,0,10:20:00,0,0,0,0,0,0,0,0,0,0,0,0,0,0,0,0,0,0,0,0,0,0
8490B5530801,Knock Airport,53.91406566,-8.81263954,Knock Airport,County_Mayo,0,0,0,0,0,0,0,0,0,0,0,0,0,0,0,0,0,0,0,0,0,0,10:30:00,0,0,0,0,0,0,0,0,0,0,0,0,0,0,0,0,0,0,0,0,0,0
853000116,Crolly,55.02381756,-8.26296189,N56,County_Donegal,0,0,0,0,0,0,0,0,0,0,0,0,0,0,0,0,0,0,0,0,0,0,0,0,0,0,0,0,0,14:45:00,0,0,0,0,0,0,0,0,0,0,0,0,0,0,0
853000380,Bunbeg Crossroads,55.061177,-8.300805561,An Bun Beag-Doirí Beaga,County_Donegal,0,0,0,0,0,0,0,0,0,0,0,0,0,0,0,0,0,0,0,0,0,0,0,0,0,0,0,0,0,14:55:00,0,0,0,0,0,0,0,0,0,0,0,0,0,0,0
853000379,Mollys Supermarket,55.07877753,-8.289631079,An Bun Beag-Doirí Beaga,County_Donegal,0,0,0,0,0,0,0,0,0,0,0,0,0,0,0,0,0,0,0,0,0,0,0,0,0,0,0,0,0,14:57:00,0,0,0,0,0,0,0,0,0,0,0,0,0,0,0
8530PB000302,Gortahork,55.12151803,-8.133047863,Gort An Choirce,County_Donegal,0,0,0,0,0,0,0,0,0,0,0,0,0,0,0,0,0,0,0,0,0,0,0,0,0,0,0,0,0,15:10:00,0,0,0,0,0,0,0,0,0,0,0,0,0,0,0
853000378,Public Phone Box,55.13638738,-8.105041321,An Fál Carrach,County_Donegal,0,0,0,0,0,0,0,0,0,0,0,0,0,0,0,0,0,0,0,0,0,0,0,0,0,0,0,0,0,15:15:00,0,0,0,0,0,0,0,0,0,0,0,0,0,0,0
853000051,Dunfanaghy,55.18325504,-7.971691299,Dunfanaghy,County_Donegal,0,0,0,0,0,0,0,0,0,0,0,0,0,0,0,0,0,0,0,0,0,0,0,0,0,0,0,0,0,15:25:00,0,0,0,0,0,0,0,0,0,0,0,0,0,0,0
853000081,Creeslough,55.1211044,-7.904984725,Creeslough,County_Donegal,0,0,0,0,0,0,0,0,0,0,0,0,0,0,0,0,0,0,0,0,0,0,0,0,0,0,0,0,0,15:40:00,0,0,0,0,0,0,0,0,0,0,0,0,0,0,0
853000087,Kilmacrennan PO,55.02965903,-7.778463717,Kilmacrennan,County_Donegal,0,0,0,0,0,0,0,0,0,0,0,0,0,0,0,0,0,0,0,0,0,0,0,0,0,0,0,0,0,15:50:00,0,0,0,0,0,0,0,0,0,0,0,0,0,0,0
8530LL10831,Letterkenny Bus Station,54.95414234,-7.728641489,Letterkenny,County_Donegal,0,0,0,0,0,0,0,0,0,0,0,0,0,0,0,0,0,0,0,0,0,0,0,0,0,0,0,0,0,16:30:00,0,0,0,0,0,0,0,0,0,0,0,0,0,0,0
853000113,Lower Main Street,54.8000226,-7.778897126,Ballybofey-Stranorlar,County_Donegal,0,0,0,0,0,0,0,0,0,0,0,0,0,0,0,0,0,0,0,0,0,0,0,0,0,0,0,0,0,16:45:00,0,0,0,0,0,0,0,0,0,0,0,0,0,0,0
853000114,Donegal Town Garda Station,54.65240809,-8.111196295,Donegal,County_Donegal,0,0,0,0,0,0,0,0,0,0,0,0,0,0,0,0,0,0,0,0,0,0,0,0,0,0,0,0,0,17:15:00,0,0,0,0,0,0,0,0,0,0,0,0,0,0,0
853000381,Maggies Bar,54.50028151,-8.190551028,Ballyshannon,County_Donegal,0,0,0,0,0,0,0,0,0,0,0,0,0,0,0,0,0,0,0,0,0,0,0,0,0,0,0,0,0,17:30:00,0,0,0,0,0,0,0,0,0,0,0,0,0,0,0
853000016,Main Street,54.477968,-8.279908,Bundoran,County_Donegal,0,0,0,0,0,0,0,0,0,0,0,0,0,0,0,0,0,0,0,0,0,0,0,0,0,0,0,0,0,17:35:00,0,0,0,0,0,0,0,0,0,0,0,0,0,0,0
8510B555131,Grange,54.39307357,-8.523400984,Grange,County_Sligo,0,0,0,0,0,0,0,0,0,0,0,0,0,0,0,0,0,0,0,0,0,0,0,0,0,0,0,0,0,17:45:00,0,0,0,0,0,0,0,0,0,0,0,0,0,0,0
8510B5584201,Markievicz Road,54.27262833,-8.474110589,Sligo,County_Sligo,0,0,0,0,0,0,0,0,0,0,0,0,0,0,0,0,0,0,0,0,0,0,0,0,0,0,0,0,0,18:15:00,0,0,0,0,0,0,0,0,0,0,0,0,0,0,0
851000036,Hawthorn Court,54.18200648,-8.485665822,Collooney,County_Sligo,0,0,0,0,0,0,0,0,0,0,0,0,0,0,0,0,0,0,0,0,0,0,0,0,0,0,0,0,0,18:35:00,0,0,0,0,0,0,0,0,0,0,0,0,0,0,0
8510B550211,Ballinacarrow,54.13379389,-8.560951644,Ballinacarrow,County_Sligo,0,0,0,0,0,0,0,0,0,0,0,0,0,0,0,0,0,0,0,0,0,0,0,0,0,0,0,0,0,18:40:00,0,0,0,0,0,0,0,0,0,0,0,0,0,0,0
851000082,Circular Road,54.05228823,-8.73501987,Tubbercurry,County_Sligo,0,0,0,0,0,0,0,0,0,0,0,0,0,0,0,0,0,0,0,0,0,0,0,0,0,0,0,0,0,18:50:00,0,0,0,0,0,0,0,0,0,0,0,0,0,0,0
849000277,Charlestown Square,53.96395246,-8.794605857,Charlestown-Bellahy,County_Mayo,0,0,0,0,0,0,0,0,0,0,0,0,0,0,0,0,0,0,0,0,0,0,0,0,0,0,0,0,0,19:00:00,0,0,0,0,0,0,0,0,0,0,0,0,0,0,0
849000298,Lennons Cafe,53.79548976,-8.918462017,Knock,County_Mayo,0,0,0,0,0,0,0,0,0,0,0,0,0,0,0,0,0,0,0,0,0,0,0,0,0,0,0,0,0,19:20:00,0,0,0,0,0,0,0,0,0,0,0,0,0,0,0
849000278,Main Street,53.71981786,-8.998750962,Claremorris,County_Mayo,0,0,0,0,0,0,0,0,0,0,0,0,0,0,0,0,0,0,0,0,0,0,0,0,0,0,0,0,0,19:30:00,0,0,0,0,0,0,0,0,0,0,0,0,0,0,0
847000552,Level Crossing,53.51394191,-8.856770843,Tuam,County_Galway,0,0,0,0,0,0,0,0,0,0,0,0,0,0,0,0,0,0,0,0,0,0,0,0,0,0,0,0,0,19:55:00,0,0,0,0,0,0,0,0,0,0,0,0,0,0,0
846000057,Eyre Square,53.27360079,-9.048846635,Galway city and suburbs,County_Galway,0,0,0,0,0,0,0,0,0,0,0,0,0,0,0,0,0,0,0,0,0,0,0,0,0,0,0,0,0,20:40:00,0,0,0,0,0,0,0,0,0,0,0,0,0,0,0
846000192,Galway Cathedral,53.27527019,-9.058258628,Galway city and suburbs,County_Galway,0,0,0,0,0,0,0,0,0,0,0,0,0,0,0,0,0,0,0,0,0,0,0,0,0,0,0,0,0,20:45:00,0,0,0,0,0,0,0,0,0,0,0,0,0,0,0
8490B5530801,Knock Airport,53.91406566,-8.81263954,Knock Airport,County_Mayo,0,0,0,0,0,0,0,0,0,0,0,0,0,0,0,0,0,0,0,0,0,0,10:10:00,0,0,0,0,0,0,0,0,0,0,0,0,0,0,0,0,0,0,0,0,0,0
8490B141641,Market Square,53.96396871,-8.794865239,Charlestown-Bellahy,County_Mayo,0,0,0,0,0,0,0,0,0,0,0,0,0,0,0,0,0,0,0,0,0,0,10:20:00,0,0,0,0,0,0,0,0,0,0,0,0,0,0,0,0,0,0,0,0,0,0
8490B5530801,Knock Airport,53.91406566,-8.81263954,Knock Airport,County_Mayo,0,0,0,0,0,0,0,0,0,0,0,0,0,0,0,0,0,0,0,0,0,0,10:30:00,0,0,0,0,0,0,0,0,0,0,0,0,0,0,0,0,0,0,0,0,0,0
853000116,Crolly,55.02381756,-8.26296189,N56,County_Donegal,0,0,0,0,0,0,0,0,0,0,0,0,0,0,0,0,0,0,0,0,0,0,0,0,0,0,0,0,0,0,17:30:00,0,0,0,0,0,0,0,0,0,0,0,0,0,0
853000380,Bunbeg Crossroads,55.061177,-8.300805561,An Bun Beag-Doirí Beaga,County_Donegal,0,0,0,0,0,0,0,0,0,0,0,0,0,0,0,0,0,0,0,0,0,0,0,0,0,0,0,0,0,0,17:45:00,0,0,0,0,0,0,0,0,0,0,0,0,0,0
853000379,Mollys Supermarket,55.07877753,-8.289631079,An Bun Beag-Doirí Beaga,County_Donegal,0,0,0,0,0,0,0,0,0,0,0,0,0,0,0,0,0,0,0,0,0,0,0,0,0,0,0,0,0,0,17:47:00,0,0,0,0,0,0,0,0,0,0,0,0,0,0
8530PB000302,Gortahork,55.12151803,-8.133047863,Gort An Choirce,County_Donegal,0,0,0,0,0,0,0,0,0,0,0,0,0,0,0,0,0,0,0,0,0,0,0,0,0,0,0,0,0,0,18:00:00,0,0,0,0,0,0,0,0,0,0,0,0,0,0
853000378,Public Phone Box,55.13638738,-8.105041321,An Fál Carrach,County_Donegal,0,0,0,0,0,0,0,0,0,0,0,0,0,0,0,0,0,0,0,0,0,0,0,0,0,0,0,0,0,0,18:05:00,0,0,0,0,0,0,0,0,0,0,0,0,0,0
853000051,Dunfanaghy,55.18325504,-7.971691299,Dunfanaghy,County_Donegal,0,0,0,0,0,0,0,0,0,0,0,0,0,0,0,0,0,0,0,0,0,0,0,0,0,0,0,0,0,0,18:15:00,0,0,0,0,0,0,0,0,0,0,0,0,0,0
853000081,Creeslough,55.1211044,-7.904984725,Creeslough,County_Donegal,0,0,0,0,0,0,0,0,0,0,0,0,0,0,0,0,0,0,0,0,0,0,0,0,0,0,0,0,0,0,18:25:00,0,0,0,0,0,0,0,0,0,0,0,0,0,0
853000087,Kilmacrennan PO,55.02965903,-7.778463717,Kilmacrennan,County_Donegal,0,0,0,0,0,0,0,0,0,0,0,0,0,0,0,0,0,0,0,0,0,0,0,0,0,0,0,0,0,0,18:35:00,0,0,0,0,0,0,0,0,0,0,0,0,0,0
8530LL10831,Letterkenny Bus Station,54.95414234,-7.728641489,Letterkenny,County_Donegal,0,0,0,0,0,0,0,0,0,0,0,0,0,0,0,0,0,0,0,0,0,0,0,0,0,0,0,0,0,0,19:30:00,0,0,0,0,0,0,0,0,0,0,0,0,0,0
853000113,Lower Main Street,54.8000226,-7.778897126,Ballybofey-Stranorlar,County_Donegal,0,0,0,0,0,0,0,0,0,0,0,0,0,0,0,0,0,0,0,0,0,0,0,0,0,0,0,0,0,0,19:45:00,0,0,0,0,0,0,0,0,0,0,0,0,0,0
853000114,Donegal Town Garda Station,54.65240809,-8.111196295,Donegal,County_Donegal,0,0,0,0,0,0,0,0,0,0,0,0,0,0,0,0,0,0,0,0,0,0,0,0,0,0,0,0,0,0,20:15:00,0,0,0,0,0,0,0,0,0,0,0,0,0,0
853000381,Maggies Bar,54.50028151,-8.190551028,Ballyshannon,County_Donegal,0,0,0,0,0,0,0,0,0,0,0,0,0,0,0,0,0,0,0,0,0,0,0,0,0,0,0,0,0,0,20:30:00,0,0,0,0,0,0,0,0,0,0,0,0,0,0
853000016,Main Street,54.477968,-8.279908,Bundoran,County_Donegal,0,0,0,0,0,0,0,0,0,0,0,0,0,0,0,0,0,0,0,0,0,0,0,0,0,0,0,0,0,0,20:35:00,0,0,0,0,0,0,0,0,0,0,0,0,0,0
8510B555131,Grange,54.39307357,-8.523400984,Grange,County_Sligo,0,0,0,0,0,0,0,0,0,0,0,0,0,0,0,0,0,0,0,0,0,0,0,0,0,0,0,0,0,0,20:45:00,0,0,0,0,0,0,0,0,0,0,0,0,0,0
8510B5584201,Markievicz Road,54.27262833,-8.474110589,Sligo,County_Sligo,0,0,0,0,0,0,0,0,0,0,0,0,0,0,0,0,0,0,0,0,0,0,0,0,0,0,0,0,0,0,21:30:00,0,0,0,0,0,0,0,0,0,0,0,0,0,0
851000036,Hawthorn Court,54.18200648,-8.485665822,Collooney,County_Sligo,0,0,0,0,0,0,0,0,0,0,0,0,0,0,0,0,0,0,0,0,0,0,0,0,0,0,0,0,0,0,21:35:00,0,0,0,0,0,0,0,0,0,0,0,0,0,0
8510B550211,Ballinacarrow,54.13379389,-8.560951644,Ballinacarrow,County_Sligo,0,0,0,0,0,0,0,0,0,0,0,0,0,0,0,0,0,0,0,0,0,0,0,0,0,0,0,0,0,0,21:40:00,0,0,0,0,0,0,0,0,0,0,0,0,0,0
851000082,Circular Road,54.05228823,-8.73501987,Tubbercurry,County_Sligo,0,0,0,0,0,0,0,0,0,0,0,0,0,0,0,0,0,0,0,0,0,0,0,0,0,0,0,0,0,0,21:50:00,0,0,0,0,0,0,0,0,0,0,0,0,0,0
849000277,Charlestown Square,53.96395246,-8.794605857,Charlestown-Bellahy,County_Mayo,0,0,0,0,0,0,0,0,0,0,0,0,0,0,0,0,0,0,0,0,0,0,0,0,0,0,0,0,0,0,22:00:00,0,0,0,0,0,0,0,0,0,0,0,0,0,0
849000298,Lennons Cafe,53.79548976,-8.918462017,Knock,County_Mayo,0,0,0,0,0,0,0,0,0,0,0,0,0,0,0,0,0,0,0,0,0,0,0,0,0,0,0,0,0,0,22:20:00,0,0,0,0,0,0,0,0,0,0,0,0,0,0
849000278,Main Street,53.71981786,-8.998750962,Claremorris,County_Mayo,0,0,0,0,0,0,0,0,0,0,0,0,0,0,0,0,0,0,0,0,0,0,0,0,0,0,0,0,0,0,22:30:00,0,0,0,0,0,0,0,0,0,0,0,0,0,0
847000552,Level Crossing,53.51394191,-8.856770843,Tuam,County_Galway,0,0,0,0,0,0,0,0,0,0,0,0,0,0,0,0,0,0,0,0,0,0,0,0,0,0,0,0,0,0,22:55:00,0,0,0,0,0,0,0,0,0,0,0,0,0,0
847000078,West Wing Restaurant,53.50696306,-8.880946428,West Wing Restaurant,County_Galway,0,0,0,0,0,0,0,0,0,0,0,0,0,0,0,0,0,0,0,0,0,0,0,0,0,0,0,0,0,0,23:00:00,0,0,0,0,0,0,0,0,0,0,0,0,0,0
846000057,Eyre Square,53.27360079,-9.048846635,Galway city and suburbs,County_Galway,0,0,0,0,0,0,0,0,0,0,0,0,0,0,0,0,0,0,0,0,0,0,0,0,0,0,0,0,0,0,23:40:00,0,0,0,0,0,0,0,0,0,0,0,0,0,0
846000192,Galway Cathedral,53.27527019,-9.058258628,Galway city and suburbs,County_Galway,0,0,0,0,0,0,0,0,0,0,0,0,0,0,0,0,0,0,0,0,0,0,0,0,0,0,0,0,0,0,23:45:00,0,0,0,0,0,0,0,0,0,0,0,0,0,0
8460PB003575,Corrib Village Galway,53.2882201,-9.070457314,Galway city and suburbs,County_Galway,0,0,0,0,0,0,0,0,0,0,0,0,0,0,0,0,0,0,0,0,0,0,0,0,0,0,0,0,0,0,23:50:00,0,0,0,0,0,0,0,0,0,0,0,0,0,0
8460B5233201,Walter Macken Road,53.28280517,-9.010186335,Galway city and suburbs,County_Galway,0,0,0,0,0,0,0,0,0,0,0,0,0,0,0,0,0,0,0,0,0,0,0,0,0,0,0,0,0,0,24:00:00,0,0,0,0,0,0,0,0,0,0,0,0,0,0
8490B5530801,Knock Airport,53.91406566,-8.81263954,Knock Airport,County_Mayo,0,0,0,0,0,0,0,0,0,0,0,0,0,0,0,0,0,0,0,0,0,0,10:10:00,0,0,0,0,0,0,0,0,0,0,0,0,0,0,0,0,0,0,0,0,0,0
8490B141641,Market Square,53.96396871,-8.794865239,Charlestown-Bellahy,County_Mayo,0,0,0,0,0,0,0,0,0,0,0,0,0,0,0,0,0,0,0,0,0,0,10:20:00,0,0,0,0,0,0,0,0,0,0,0,0,0,0,0,0,0,0,0,0,0,0
8490B5530801,Knock Airport,53.91406566,-8.81263954,Knock Airport,County_Mayo,0,0,0,0,0,0,0,0,0,0,0,0,0,0,0,0,0,0,0,0,0,0,10:30:00,0,0,0,0,0,0,0,0,0,0,0,0,0,0,0,0,0,0,0,0,0,0
853000116,Crolly,55.02381756,-8.26296189,N56,County_Donegal,0,0,0,0,0,0,0,0,0,0,0,0,0,0,0,0,0,0,0,0,0,0,0,0,0,0,0,0,0,0,0,17:30:00,0,0,0,0,0,0,0,0,0,0,0,0,0
853000380,Bunbeg Crossroads,55.061177,-8.300805561,An Bun Beag-Doirí Beaga,County_Donegal,0,0,0,0,0,0,0,0,0,0,0,0,0,0,0,0,0,0,0,0,0,0,0,0,0,0,0,0,0,0,0,17:45:00,0,0,0,0,0,0,0,0,0,0,0,0,0
853000379,Mollys Supermarket,55.07877753,-8.289631079,An Bun Beag-Doirí Beaga,County_Donegal,0,0,0,0,0,0,0,0,0,0,0,0,0,0,0,0,0,0,0,0,0,0,0,0,0,0,0,0,0,0,0,17:47:00,0,0,0,0,0,0,0,0,0,0,0,0,0
8530PB000302,Gortahork,55.12151803,-8.133047863,Gort An Choirce,County_Donegal,0,0,0,0,0,0,0,0,0,0,0,0,0,0,0,0,0,0,0,0,0,0,0,0,0,0,0,0,0,0,0,18:00:00,0,0,0,0,0,0,0,0,0,0,0,0,0
853000378,Public Phone Box,55.13638738,-8.105041321,An Fál Carrach,County_Donegal,0,0,0,0,0,0,0,0,0,0,0,0,0,0,0,0,0,0,0,0,0,0,0,0,0,0,0,0,0,0,0,18:05:00,0,0,0,0,0,0,0,0,0,0,0,0,0
853000051,Dunfanaghy,55.18325504,-7.971691299,Dunfanaghy,County_Donegal,0,0,0,0,0,0,0,0,0,0,0,0,0,0,0,0,0,0,0,0,0,0,0,0,0,0,0,0,0,0,0,18:15:00,0,0,0,0,0,0,0,0,0,0,0,0,0
853000081,Creeslough,55.1211044,-7.904984725,Creeslough,County_Donegal,0,0,0,0,0,0,0,0,0,0,0,0,0,0,0,0,0,0,0,0,0,0,0,0,0,0,0,0,0,0,0,18:25:00,0,0,0,0,0,0,0,0,0,0,0,0,0
853000087,Kilmacrennan PO,55.02965903,-7.778463717,Kilmacrennan,County_Donegal,0,0,0,0,0,0,0,0,0,0,0,0,0,0,0,0,0,0,0,0,0,0,0,0,0,0,0,0,0,0,0,18:35:00,0,0,0,0,0,0,0,0,0,0,0,0,0
8530LL10831,Letterkenny Bus Station,54.95414234,-7.728641489,Letterkenny,County_Donegal,0,0,0,0,0,0,0,0,0,0,0,0,0,0,0,0,0,0,0,0,0,0,0,0,0,0,0,0,0,0,0,19:30:00,0,0,0,0,0,0,0,0,0,0,0,0,0
853000113,Lower Main Street,54.8000226,-7.778897126,Ballybofey-Stranorlar,County_Donegal,0,0,0,0,0,0,0,0,0,0,0,0,0,0,0,0,0,0,0,0,0,0,0,0,0,0,0,0,0,0,0,19:45:00,0,0,0,0,0,0,0,0,0,0,0,0,0
846000057,Eyre Square,53.27360079,-9.048846635,Galway city and suburbs,County_Galway,0,0,0,0,0,0,0,0,0,0,0,0,0,0,0,0,0,0,0,0,0,0,0,0,0,0,0,0,0,0,0,23:15:00,0,0,0,0,0,0,0,0,0,0,0,0,0
846000192,Galway Cathedral,53.27527019,-9.058258628,Galway city and suburbs,County_Galway,0,0,0,0,0,0,0,0,0,0,0,0,0,0,0,0,0,0,0,0,0,0,0,0,0,0,0,0,0,0,0,23:20:00,0,0,0,0,0,0,0,0,0,0,0,0,0
8460PB003575,Corrib Village Galway,53.2882201,-9.070457314,Galway city and suburbs,County_Galway,0,0,0,0,0,0,0,0,0,0,0,0,0,0,0,0,0,0,0,0,0,0,0,0,0,0,0,0,0,0,0,23:25:00,0,0,0,0,0,0,0,0,0,0,0,0,0
8460B5233201,Walter Macken Road,53.28280517,-9.010186335,Galway city and suburbs,County_Galway,0,0,0,0,0,0,0,0,0,0,0,0,0,0,0,0,0,0,0,0,0,0,0,0,0,0,0,0,0,0,0,23:35:00,0,0,0,0,0,0,0,0,0,0,0,0,0
8490B5530801,Knock Airport,53.91406566,-8.81263954,Knock Airport,County_Mayo,0,0,0,0,0,0,0,0,0,0,0,0,0,0,0,0,0,0,0,0,0,0,10:10:00,0,0,0,0,0,0,0,0,0,0,0,0,0,0,0,0,0,0,0,0,0,0
8490B141641,Market Square,53.96396871,-8.794865239,Charlestown-Bellahy,County_Mayo,0,0,0,0,0,0,0,0,0,0,0,0,0,0,0,0,0,0,0,0,0,0,10:20:00,0,0,0,0,0,0,0,0,0,0,0,0,0,0,0,0,0,0,0,0,0,0
8490B5530801,Knock Airport,53.91406566,-8.81263954,Knock Airport,County_Mayo,0,0,0,0,0,0,0,0,0,0,0,0,0,0,0,0,0,0,0,0,0,0,10:30:00,0,0,0,0,0,0,0,0,0,0,0,0,0,0,0,0,0,0,0,0,0,0
8490B5530801,Knock Airport,53.91406566,-8.81263954,Knock Airport,County_Mayo,0,0,0,0,0,0,0,0,0,0,0,0,0,0,0,0,0,0,0,0,0,0,0,0,0,0,0,0,0,0,0,0,17:50:00,0,0,0,0,0,0,0,0,0,0,0,0
849000277,Charlestown Square,53.96395246,-8.794605857,Charlestown-Bellahy,County_Mayo,0,0,0,0,0,0,0,0,0,0,0,0,0,0,0,0,0,0,0,0,0,0,0,0,0,0,0,0,0,0,0,0,18:00:00,0,0,0,0,0,0,0,0,0,0,0,0
8490B5530801,Knock Airport,53.91406566,-8.81263954,Knock Airport,County_Mayo,0,0,0,0,0,0,0,0,0,0,0,0,0,0,0,0,0,0,0,0,0,0,0,0,0,0,0,0,0,0,0,0,18:10:00,0,0,0,0,0,0,0,0,0,0,0,0
8490B5530801,Knock Airport,53.91406566,-8.81263954,Knock Airport,County_Mayo,0,0,0,0,0,0,0,0,0,0,0,0,0,0,0,0,0,0,0,0,0,0,0,0,0,0,0,0,0,0,0,0,0,10:10:00,0,0,0,0,0,0,0,0,0,0,0
8490B141641,Market Square,53.96396871,-8.794865239,Charlestown-Bellahy,County_Mayo,0,0,0,0,0,0,0,0,0,0,0,0,0,0,0,0,0,0,0,0,0,0,0,0,0,0,0,0,0,0,0,0,0,10:20:00,0,0,0,0,0,0,0,0,0,0,0
8490B5530801,Knock Airport,53.91406566,-8.81263954,Knock Airport,County_Mayo,0,0,0,0,0,0,0,0,0,0,0,0,0,0,0,0,0,0,0,0,0,0,0,0,0,0,0,0,0,0,0,0,0,10:30:00,0,0,0,0,0,0,0,0,0,0,0
8490B5530801,Knock Airport,53.91406566,-8.81263954,Knock Airport,County_Mayo,0,0,0,0,0,0,0,0,0,0,0,0,0,0,0,0,0,0,0,0,0,0,0,0,0,0,0,0,0,0,0,0,0,10:10:00,0,0,0,0,0,0,0,0,0,0,0
8490B141641,Market Square,53.96396871,-8.794865239,Charlestown-Bellahy,County_Mayo,0,0,0,0,0,0,0,0,0,0,0,0,0,0,0,0,0,0,0,0,0,0,0,0,0,0,0,0,0,0,0,0,0,10:20:00,0,0,0,0,0,0,0,0,0,0,0
8490B5530801,Knock Airport,53.91406566,-8.81263954,Knock Airport,County_Mayo,0,0,0,0,0,0,0,0,0,0,0,0,0,0,0,0,0,0,0,0,0,0,0,0,0,0,0,0,0,0,0,0,0,10:30:00,0,0,0,0,0,0,0,0,0,0,0
849000072,Supervalu,55.25234964,-7.258569558,Carndonagh,County_Donegal,0,0,0,0,0,0,0,0,0,0,0,0,0,0,0,0,0,0,0,0,0,0,0,0,0,0,0,0,0,0,0,0,0,0,18:00:00,0,0,0,0,0,0,0,0,0,0
853000108,SuperValu,55.13791328,-7.455841149,Buncrana,County_Donegal,0,0,0,0,0,0,0,0,0,0,0,0,0,0,0,0,0,0,0,0,0,0,0,0,0,0,0,0,0,0,0,0,0,0,18:20:00,0,0,0,0,0,0,0,0,0,0
853000119,Callaghans,55.0319195,-7.454916393,Callaghans,County_Donegal,0,0,0,0,0,0,0,0,0,0,0,0,0,0,0,0,0,0,0,0,0,0,0,0,0,0,0,0,0,0,0,0,0,0,18:40:00,0,0,0,0,0,0,0,0,0,0
853000128,Kernans Shop,54.99832105,-7.515261553,Kernans Shop,County_Donegal,0,0,0,0,0,0,0,0,0,0,0,0,0,0,0,0,0,0,0,0,0,0,0,0,0,0,0,0,0,0,0,0,0,0,18:45:00,0,0,0,0,0,0,0,0,0,0
8530LL10831,Letterkenny Bus Station,54.95414234,-7.728641489,Letterkenny,County_Donegal,0,0,0,0,0,0,0,0,0,0,0,0,0,0,0,0,0,0,0,0,0,0,0,0,0,0,0,0,0,0,0,0,0,0,19:00:00,0,0,0,0,0,0,0,0,0,0
8490B5530801,Knock Airport,53.91406566,-8.81263954,Knock Airport,County_Mayo,0,0,0,0,0,0,0,0,0,0,0,0,0,0,0,0,0,0,0,0,0,0,0,0,0,0,0,0,0,0,0,0,0,10:10:00,0,0,0,0,0,0,0,0,0,0,0
8490B141641,Market Square,53.96396871,-8.794865239,Charlestown-Bellahy,County_Mayo,0,0,0,0,0,0,0,0,0,0,0,0,0,0,0,0,0,0,0,0,0,0,0,0,0,0,0,0,0,0,0,0,0,10:20:00,0,0,0,0,0,0,0,0,0,0,0
8490B5530801,Knock Airport,53.91406566,-8.81263954,Knock Airport,County_Mayo,0,0,0,0,0,0,0,0,0,0,0,0,0,0,0,0,0,0,0,0,0,0,0,0,0,0,0,0,0,0,0,0,0,10:30:00,0,0,0,0,0,0,0,0,0,0,0
853000123,Community Hall,54.95046755,-8.358172758,An Clochán Liath,County_Donegal,0,0,0,0,0,0,0,0,0,0,0,0,0,0,0,0,0,0,0,0,0,0,0,0,0,0,0,0,0,0,0,0,0,0,0,18:40:00,0,0,0,0,0,0,0,0,0
8530B141391,Glenties,54.79514436,-8.281597518,Glenties,County_Donegal,0,0,0,0,0,0,0,0,0,0,0,0,0,0,0,0,0,0,0,0,0,0,0,0,0,0,0,0,0,0,0,0,0,0,0,19:15:00,0,0,0,0,0,0,0,0,0
853000111,Ardara,54.76198074,-8.413544782,Ardara,County_Donegal,0,0,0,0,0,0,0,0,0,0,0,0,0,0,0,0,0,0,0,0,0,0,0,0,0,0,0,0,0,0,0,0,0,0,0,19:20:00,0,0,0,0,0,0,0,0,0
853000112,Bayview Hotel,54.63655819,-8.441918352,Killybegs,County_Donegal,0,0,0,0,0,0,0,0,0,0,0,0,0,0,0,0,0,0,0,0,0,0,0,0,0,0,0,0,0,0,0,0,0,0,0,19:45:00,0,0,0,0,0,0,0,0,0
853000114,Donegal Town Garda Station,54.65240809,-8.111196295,Donegal,County_Donegal,0,0,0,0,0,0,0,0,0,0,0,0,0,0,0,0,0,0,0,0,0,0,0,0,0,0,0,0,0,0,0,0,0,0,0,20:15:00,0,0,0,0,0,0,0,0,0
8490B5530801,Knock Airport,53.91406566,-8.81263954,Knock Airport,County_Mayo,0,0,0,0,0,0,0,0,0,0,0,0,0,0,0,0,0,0,0,0,0,0,0,0,0,0,0,0,0,0,0,0,0,10:10:00,0,0,0,0,0,0,0,0,0,0,0
8490B141641,Market Square,53.96396871,-8.794865239,Charlestown-Bellahy,County_Mayo,0,0,0,0,0,0,0,0,0,0,0,0,0,0,0,0,0,0,0,0,0,0,0,0,0,0,0,0,0,0,0,0,0,10:20:00,0,0,0,0,0,0,0,0,0,0,0
8490B5530801,Knock Airport,53.91406566,-8.81263954,Knock Airport,County_Mayo,0,0,0,0,0,0,0,0,0,0,0,0,0,0,0,0,0,0,0,0,0,0,0,0,0,0,0,0,0,0,0,0,0,10:30:00,0,0,0,0,0,0,0,0,0,0,0
8490B5530801,Knock Airport,53.91406566,-8.81263954,Knock Airport,County_Mayo,0,0,0,0,0,0,0,0,0,0,0,0,0,0,0,0,0,0,0,0,0,0,0,0,0,0,0,0,0,0,0,0,0,0,0,0,18:50:00,0,0,0,0,0,0,0,0
849000277,Charlestown Square,53.96395246,-8.794605857,Charlestown-Bellahy,County_Mayo,0,0,0,0,0,0,0,0,0,0,0,0,0,0,0,0,0,0,0,0,0,0,0,0,0,0,0,0,0,0,0,0,0,0,0,0,19:00:00,0,0,0,0,0,0,0,0
8490B5530801,Knock Airport,53.91406566,-8.81263954,Knock Airport,County_Mayo,0,0,0,0,0,0,0,0,0,0,0,0,0,0,0,0,0,0,0,0,0,0,0,0,0,0,0,0,0,0,0,0,0,0,0,0,19:10:00,0,0,0,0,0,0,0,0
8490B5530801,Knock Airport,53.91406566,-8.81263954,Knock Airport,County_Mayo,0,0,0,0,0,0,0,0,0,0,0,0,0,0,0,0,0,0,0,0,0,0,0,0,0,0,0,0,0,0,0,0,0,10:10:00,0,0,0,0,0,0,0,0,0,0,0
8490B141641,Market Square,53.96396871,-8.794865239,Charlestown-Bellahy,County_Mayo,0,0,0,0,0,0,0,0,0,0,0,0,0,0,0,0,0,0,0,0,0,0,0,0,0,0,0,0,0,0,0,0,0,10:20:00,0,0,0,0,0,0,0,0,0,0,0
8490B5530801,Knock Airport,53.91406566,-8.81263954,Knock Airport,County_Mayo,0,0,0,0,0,0,0,0,0,0,0,0,0,0,0,0,0,0,0,0,0,0,0,0,0,0,0,0,0,0,0,0,0,10:30:00,0,0,0,0,0,0,0,0,0,0,0
8490B5530801,Knock Airport,53.91406566,-8.81263954,Knock Airport,County_Mayo,0,0,0,0,0,0,0,0,0,0,0,0,0,0,0,0,0,0,0,0,0,0,0,0,0,0,0,0,0,0,0,0,0,0,0,0,0,18:50:00,0,0,0,0,0,0,0
849000277,Charlestown Square,53.96395246,-8.794605857,Charlestown-Bellahy,County_Mayo,0,0,0,0,0,0,0,0,0,0,0,0,0,0,0,0,0,0,0,0,0,0,0,0,0,0,0,0,0,0,0,0,0,0,0,0,0,19:00:00,0,0,0,0,0,0,0
8490B5530801,Knock Airport,53.91406566,-8.81263954,Knock Airport,County_Mayo,0,0,0,0,0,0,0,0,0,0,0,0,0,0,0,0,0,0,0,0,0,0,0,0,0,0,0,0,0,0,0,0,0,0,0,0,0,19:10:00,0,0,0,0,0,0,0
8490B5530801,Knock Airport,53.91406566,-8.81263954,Knock Airport,County_Mayo,0,0,0,0,0,0,0,0,0,0,0,0,0,0,0,0,0,0,0,0,0,0,0,0,0,0,0,0,0,0,0,0,0,10:10:00,0,0,0,0,0,0,0,0,0,0,0
8490B141641,Market Square,53.96396871,-8.794865239,Charlestown-Bellahy,County_Mayo,0,0,0,0,0,0,0,0,0,0,0,0,0,0,0,0,0,0,0,0,0,0,0,0,0,0,0,0,0,0,0,0,0,10:20:00,0,0,0,0,0,0,0,0,0,0,0
8490B5530801,Knock Airport,53.91406566,-8.81263954,Knock Airport,County_Mayo,0,0,0,0,0,0,0,0,0,0,0,0,0,0,0,0,0,0,0,0,0,0,0,0,0,0,0,0,0,0,0,0,0,10:30:00,0,0,0,0,0,0,0,0,0,0,0
847000078,West Wing Restaurant,53.50696306,-8.880946428,West Wing Restaurant,County_Galway,0,0,0,0,0,0,0,0,0,0,0,0,0,0,0,0,0,0,0,0,0,0,0,0,0,0,0,0,0,0,0,0,0,0,0,0,0,0,19:00:00,0,0,0,0,0,0
8400B6083901,Melvin Grove,52.67165258,-8.663213044,Limerick city and suburbs,County_Limerick,0,0,0,0,0,0,0,0,0,0,0,0,0,0,0,0,0,0,0,0,0,0,0,0,0,0,0,0,0,0,0,0,0,0,0,0,0,0,20:15:00,0,0,0,0,0,0
8400B6069301,Brookville Avenue,52.67264556,-8.655982834,Limerick city and suburbs,County_Limerick,0,0,0,0,0,0,0,0,0,0,0,0,0,0,0,0,0,0,0,0,0,0,0,0,0,0,0,0,0,0,0,0,0,0,0,0,0,0,20:18:00,0,0,0,0,0,0
8400B6069401,Limerick IT,52.67359451,-8.646858971,Limerick city and suburbs,County_Limerick,0,0,0,0,0,0,0,0,0,0,0,0,0,0,0,0,0,0,0,0,0,0,0,0,0,0,0,0,0,0,0,0,0,0,0,0,0,0,20:20:00,0,0,0,0,0,0
8400B6074401,De Valera Park,52.67224819,-8.636547983,Limerick city and suburbs,County_Limerick,0,0,0,0,0,0,0,0,0,0,0,0,0,0,0,0,0,0,0,0,0,0,0,0,0,0,0,0,0,0,0,0,0,0,0,0,0,0,20:22:00,0,0,0,0,0,0
8400B6088801,Island Road,52.66972078,-8.621637335,Limerick city and suburbs,County_Limerick,0,0,0,0,0,0,0,0,0,0,0,0,0,0,0,0,0,0,0,0,0,0,0,0,0,0,0,0,0,0,0,0,0,0,0,0,0,0,20:25:00,0,0,0,0,0,0
8400B609441,Clare St (Urlan TV),52.66633657,-8.617375855,Limerick city and suburbs,County_Limerick,0,0,0,0,0,0,0,0,0,0,0,0,0,0,0,0,0,0,0,0,0,0,0,0,0,0,0,0,0,0,0,0,0,0,0,0,0,0,20:27:00,0,0,0,0,0,0
8400B6086301,Dublin Road,52.66419433,-8.60225189,Limerick city and suburbs,County_Limerick,0,0,0,0,0,0,0,0,0,0,0,0,0,0,0,0,0,0,0,0,0,0,0,0,0,0,0,0,0,0,0,0,0,0,0,0,0,0,20:30:00,0,0,0,0,0,0
8400B6076001,Plassey Park Road,52.667004,-8.579523,Limerick city and suburbs,County_Limerick,0,0,0,0,0,0,0,0,0,0,0,0,0,0,0,0,0,0,0,0,0,0,0,0,0,0,0,0,0,0,0,0,0,0,0,0,0,0,20:32:00,0,0,0,0,0,0
8400B6076101,UL Flagpoles,52.66897675,-8.574950743,Limerick city and suburbs,County_Limerick,0,0,0,0,0,0,0,0,0,0,0,0,0,0,0,0,0,0,0,0,0,0,0,0,0,0,0,0,0,0,0,0,0,0,0,0,0,0,20:35:00,0,0,0,0,0,0
8410B6076301,UL Student Centre,52.67278099,-8.570757043,Limerick city and suburbs,County_Limerick,0,0,0,0,0,0,0,0,0,0,0,0,0,0,0,0,0,0,0,0,0,0,0,0,0,0,0,0,0,0,0,0,0,0,0,0,0,0,20:37:00,0,0,0,0,0,0
8410B6076401,UL East Gate,52.67062376,-8.563262271,Limerick city and suburbs,County_Limerick,0,0,0,0,0,0,0,0,0,0,0,0,0,0,0,0,0,0,0,0,0,0,0,0,0,0,0,0,0,0,0,0,0,0,0,0,0,0,20:40:00,0,0,0,0,0,0
8410B607671,Monaleen Road,52.66754997,-8.559437934,Limerick city and suburbs,County_Limerick,0,0,0,0,0,0,0,0,0,0,0,0,0,0,0,0,0,0,0,0,0,0,0,0,0,0,0,0,0,0,0,0,0,0,0,0,0,0,20:42:00,0,0,0,0,0,0
8490B5530801,Knock Airport,53.91406566,-8.81263954,Knock Airport,County_Mayo,0,0,0,0,0,0,0,0,0,0,0,0,0,0,0,0,0,0,0,0,0,0,0,0,0,0,0,0,0,0,0,0,0,10:10:00,0,0,0,0,0,0,0,0,0,0,0
8490B141641,Market Square,53.96396871,-8.794865239,Charlestown-Bellahy,County_Mayo,0,0,0,0,0,0,0,0,0,0,0,0,0,0,0,0,0,0,0,0,0,0,0,0,0,0,0,0,0,0,0,0,0,10:20:00,0,0,0,0,0,0,0,0,0,0,0
8490B5530801,Knock Airport,53.91406566,-8.81263954,Knock Airport,County_Mayo,0,0,0,0,0,0,0,0,0,0,0,0,0,0,0,0,0,0,0,0,0,0,0,0,0,0,0,0,0,0,0,0,0,10:30:00,0,0,0,0,0,0,0,0,0,0,0
847000078,West Wing Restaurant,53.50696306,-8.880946428,West Wing Restaurant,County_Galway,0,0,0,0,0,0,0,0,0,0,0,0,0,0,0,0,0,0,0,0,0,0,0,0,0,0,0,0,0,0,0,0,0,0,0,0,0,0,0,23:00:00,0,0,0,0,0
8400B6083901,Melvin Grove,52.67165258,-8.663213044,Limerick city and suburbs,County_Limerick,0,0,0,0,0,0,0,0,0,0,0,0,0,0,0,0,0,0,0,0,0,0,0,0,0,0,0,0,0,0,0,0,0,0,0,0,0,0,0,24:15:00,0,0,0,0,0
8400B6069301,Brookville Avenue,52.67264556,-8.655982834,Limerick city and suburbs,County_Limerick,0,0,0,0,0,0,0,0,0,0,0,0,0,0,0,0,0,0,0,0,0,0,0,0,0,0,0,0,0,0,0,0,0,0,0,0,0,0,0,24:18:00,0,0,0,0,0
8400B6069401,Limerick IT,52.67359451,-8.646858971,Limerick city and suburbs,County_Limerick,0,0,0,0,0,0,0,0,0,0,0,0,0,0,0,0,0,0,0,0,0,0,0,0,0,0,0,0,0,0,0,0,0,0,0,0,0,0,0,24:20:00,0,0,0,0,0
8400B6074401,De Valera Park,52.67224819,-8.636547983,Limerick city and suburbs,County_Limerick,0,0,0,0,0,0,0,0,0,0,0,0,0,0,0,0,0,0,0,0,0,0,0,0,0,0,0,0,0,0,0,0,0,0,0,0,0,0,0,24:22:00,0,0,0,0,0
8400B6088801,Island Road,52.66972078,-8.621637335,Limerick city and suburbs,County_Limerick,0,0,0,0,0,0,0,0,0,0,0,0,0,0,0,0,0,0,0,0,0,0,0,0,0,0,0,0,0,0,0,0,0,0,0,0,0,0,0,24:25:00,0,0,0,0,0
8400B609441,Clare St (Urlan TV),52.66633657,-8.617375855,Limerick city and suburbs,County_Limerick,0,0,0,0,0,0,0,0,0,0,0,0,0,0,0,0,0,0,0,0,0,0,0,0,0,0,0,0,0,0,0,0,0,0,0,0,0,0,0,24:27:00,0,0,0,0,0
8400B6086301,Dublin Road,52.66419433,-8.60225189,Limerick city and suburbs,County_Limerick,0,0,0,0,0,0,0,0,0,0,0,0,0,0,0,0,0,0,0,0,0,0,0,0,0,0,0,0,0,0,0,0,0,0,0,0,0,0,0,24:30:00,0,0,0,0,0
8400B6076001,Plassey Park Road,52.667004,-8.579523,Limerick city and suburbs,County_Limerick,0,0,0,0,0,0,0,0,0,0,0,0,0,0,0,0,0,0,0,0,0,0,0,0,0,0,0,0,0,0,0,0,0,0,0,0,0,0,0,24:32:00,0,0,0,0,0
8400B6076101,UL Flagpoles,52.66897675,-8.574950743,Limerick city and suburbs,County_Limerick,0,0,0,0,0,0,0,0,0,0,0,0,0,0,0,0,0,0,0,0,0,0,0,0,0,0,0,0,0,0,0,0,0,0,0,0,0,0,0,24:35:00,0,0,0,0,0
8410B6076301,UL Student Centre,52.67278099,-8.570757043,Limerick city and suburbs,County_Limerick,0,0,0,0,0,0,0,0,0,0,0,0,0,0,0,0,0,0,0,0,0,0,0,0,0,0,0,0,0,0,0,0,0,0,0,0,0,0,0,24:37:00,0,0,0,0,0
8410B6076401,UL East Gate,52.67062376,-8.563262271,Limerick city and suburbs,County_Limerick,0,0,0,0,0,0,0,0,0,0,0,0,0,0,0,0,0,0,0,0,0,0,0,0,0,0,0,0,0,0,0,0,0,0,0,0,0,0,0,24:40:00,0,0,0,0,0
8410B607671,Monaleen Road,52.66754997,-8.559437934,Limerick city and suburbs,County_Limerick,0,0,0,0,0,0,0,0,0,0,0,0,0,0,0,0,0,0,0,0,0,0,0,0,0,0,0,0,0,0,0,0,0,0,0,0,0,0,0,24:42:00,0,0,0,0,0
8410B6076301,UL Student Centre,52.67278099,-8.570757043,Limerick city and suburbs,County_Limerick,0,0,0,0,0,0,0,0,0,0,0,0,0,0,0,0,0,0,0,0,0,0,0,0,0,0,0,0,0,0,0,0,0,0,0,0,0,0,0,0,12:30:00,0,0,0,0
8400B6086401,Dublin Road,52.66418068,-8.603168268,Limerick city and suburbs,County_Limerick,0,0,0,0,0,0,0,0,0,0,0,0,0,0,0,0,0,0,0,0,0,0,0,0,0,0,0,0,0,0,0,0,0,0,0,0,0,0,0,0,12:34:00,0,0,0,0
8400B6087801,Island Road,52.66959364,-8.621886878,Limerick city and suburbs,County_Limerick,0,0,0,0,0,0,0,0,0,0,0,0,0,0,0,0,0,0,0,0,0,0,0,0,0,0,0,0,0,0,0,0,0,0,0,0,0,0,0,0,12:36:00,0,0,0,0
8400B609441,Clare St (Urlan TV),52.66633657,-8.617375855,Limerick city and suburbs,County_Limerick,0,0,0,0,0,0,0,0,0,0,0,0,0,0,0,0,0,0,0,0,0,0,0,0,0,0,0,0,0,0,0,0,0,0,0,0,0,0,0,0,12:38:00,0,0,0,0
8400B6074401,De Valera Park,52.67224819,-8.636547983,Limerick city and suburbs,County_Limerick,0,0,0,0,0,0,0,0,0,0,0,0,0,0,0,0,0,0,0,0,0,0,0,0,0,0,0,0,0,0,0,0,0,0,0,0,0,0,0,0,12:40:00,0,0,0,0
8400B6068701,Mayorstone Upper,52.6734805,-8.64633976,Limerick city and suburbs,County_Limerick,0,0,0,0,0,0,0,0,0,0,0,0,0,0,0,0,0,0,0,0,0,0,0,0,0,0,0,0,0,0,0,0,0,0,0,0,0,0,0,0,12:45:00,0,0,0,0
847000078,West Wing Restaurant,53.50696306,-8.880946428,West Wing Restaurant,County_Galway,0,0,0,0,0,0,0,0,0,0,0,0,0,0,0,0,0,0,0,0,0,0,0,0,0,0,0,0,0,0,0,0,0,0,0,0,0,0,0,0,13:52:00,0,0,0,0
846000192,Galway Cathedral,53.27527019,-9.058258628,Galway city and suburbs,County_Galway,0,0,0,0,0,0,0,0,0,0,0,0,0,0,0,0,0,0,0,0,0,0,0,0,0,0,0,0,0,0,0,0,0,0,0,0,0,0,0,0,0,13:00:00,0,0,0
853000076,Ballybofey,54.800148,-7.778756,Ballybofey-Stranorlar,County_Donegal,0,0,0,0,0,0,0,0,0,0,0,0,0,0,0,0,0,0,0,0,0,0,0,0,0,0,0,0,0,0,0,0,0,0,0,0,0,0,0,0,0,16:45:00,0,0,0
8530LL10831,Letterkenny Bus Station,54.95414234,-7.728641489,Letterkenny,County_Donegal,0,0,0,0,0,0,0,0,0,0,0,0,0,0,0,0,0,0,0,0,0,0,0,0,0,0,0,0,0,0,0,0,0,0,0,0,0,0,0,0,0,17:15:00,0,0,0
847000077,ATU Galway Campus Bus Park,53.2788857,-9.012418133,Galway city and suburbs,County_Galway,0,0,0,0,0,0,0,0,0,0,0,0,0,0,0,0,0,0,0,0,0,0,0,0,0,0,0,0,0,0,0,0,0,0,0,0,0,0,0,0,0,0,13:00:00,0,0
846000192,Galway Cathedral,53.27527019,-9.058258628,Galway city and suburbs,County_Galway,0,0,0,0,0,0,0,0,0,0,0,0,0,0,0,0,0,0,0,0,0,0,0,0,0,0,0,0,0,0,0,0,0,0,0,0,0,0,0,0,0,0,13:30:00,0,0
847000078,West Wing Restaurant,53.50696306,-8.880946428,West Wing Restaurant,County_Galway,0,0,0,0,0,0,0,0,0,0,0,0,0,0,0,0,0,0,0,0,0,0,0,0,0,0,0,0,0,0,0,0,0,0,0,0,0,0,0,0,0,0,13:52:00,0,0
847000118,Level Crossing,53.51396854,-8.856816613,Tuam,County_Galway,0,0,0,0,0,0,0,0,0,0,0,0,0,0,0,0,0,0,0,0,0,0,0,0,0,0,0,0,0,0,0,0,0,0,0,0,0,0,0,0,0,0,13:55:00,0,0
849000355,The Square,53.71981748,-8.998796407,Claremorris,County_Mayo,0,0,0,0,0,0,0,0,0,0,0,0,0,0,0,0,0,0,0,0,0,0,0,0,0,0,0,0,0,0,0,0,0,0,0,0,0,0,0,0,0,0,14:20:00,0,0
849000298,Lennons Cafe,53.79548976,-8.918462017,Knock,County_Mayo,0,0,0,0,0,0,0,0,0,0,0,0,0,0,0,0,0,0,0,0,0,0,0,0,0,0,0,0,0,0,0,0,0,0,0,0,0,0,0,0,0,0,14:30:00,0,0
849000073,Sligo Road,53.96497101,-8.795493907,Charlestown-Bellahy,County_Mayo,0,0,0,0,0,0,0,0,0,0,0,0,0,0,0,0,0,0,0,0,0,0,0,0,0,0,0,0,0,0,0,0,0,0,0,0,0,0,0,0,0,0,14:50:00,0,0
851000082,Circular Road,54.05228823,-8.73501987,Tubbercurry,County_Sligo,0,0,0,0,0,0,0,0,0,0,0,0,0,0,0,0,0,0,0,0,0,0,0,0,0,0,0,0,0,0,0,0,0,0,0,0,0,0,0,0,0,0,15:00:00,0,0
8510PB002825,Ballinacarrow,54.13407301,-8.560833001,Ballinacarrow,County_Sligo,0,0,0,0,0,0,0,0,0,0,0,0,0,0,0,0,0,0,0,0,0,0,0,0,0,0,0,0,0,0,0,0,0,0,0,0,0,0,0,0,0,0,15:10:00,0,0
851000016,Hawthorn Court,54.18198753,-8.48591071,Collooney,County_Sligo,0,0,0,0,0,0,0,0,0,0,0,0,0,0,0,0,0,0,0,0,0,0,0,0,0,0,0,0,0,0,0,0,0,0,0,0,0,0,0,0,0,0,15:15:00,0,0
851000001,Markievicz Road,54.27279054,-8.473989627,Sligo,County_Sligo,0,0,0,0,0,0,0,0,0,0,0,0,0,0,0,0,0,0,0,0,0,0,0,0,0,0,0,0,0,0,0,0,0,0,0,0,0,0,0,0,0,0,15:45:00,0,0
851000008,Grange,54.393146,-8.523263,Grange,County_Sligo,0,0,0,0,0,0,0,0,0,0,0,0,0,0,0,0,0,0,0,0,0,0,0,0,0,0,0,0,0,0,0,0,0,0,0,0,0,0,0,0,0,0,15:55:00,0,0
853000100,Bundoran Centre,54.47789538,-8.280247146,Bundoran,County_Donegal,0,0,0,0,0,0,0,0,0,0,0,0,0,0,0,0,0,0,0,0,0,0,0,0,0,0,0,0,0,0,0,0,0,0,0,0,0,0,0,0,0,0,16:05:00,0,0
853000115,Ballyshannon,54.500992,-8.189952,Ballyshannon,County_Donegal,0,0,0,0,0,0,0,0,0,0,0,0,0,0,0,0,0,0,0,0,0,0,0,0,0,0,0,0,0,0,0,0,0,0,0,0,0,0,0,0,0,0,16:10:00,0,0
853000377,Opposite Garda Station,54.65267752,-8.111336492,Donegal,County_Donegal,0,0,0,0,0,0,0,0,0,0,0,0,0,0,0,0,0,0,0,0,0,0,0,0,0,0,0,0,0,0,0,0,0,0,0,0,0,0,0,0,0,0,16:30:00,0,0
853000076,Ballybofey,54.800148,-7.778756,Ballybofey-Stranorlar,County_Donegal,0,0,0,0,0,0,0,0,0,0,0,0,0,0,0,0,0,0,0,0,0,0,0,0,0,0,0,0,0,0,0,0,0,0,0,0,0,0,0,0,0,0,17:00:00,0,0
8530LL10831,Letterkenny Bus Station,54.95414234,-7.728641489,Letterkenny,County_Donegal,0,0,0,0,0,0,0,0,0,0,0,0,0,0,0,0,0,0,0,0,0,0,0,0,0,0,0,0,0,0,0,0,0,0,0,0,0,0,0,0,0,0,17:30:00,0,0
853000087,Kilmacrennan PO,55.02965903,-7.778463717,Kilmacrennan,County_Donegal,0,0,0,0,0,0,0,0,0,0,0,0,0,0,0,0,0,0,0,0,0,0,0,0,0,0,0,0,0,0,0,0,0,0,0,0,0,0,0,0,0,0,17:40:00,0,0
853000083,Creeslough,55.12118559,-7.905407798,Creeslough,County_Donegal,0,0,0,0,0,0,0,0,0,0,0,0,0,0,0,0,0,0,0,0,0,0,0,0,0,0,0,0,0,0,0,0,0,0,0,0,0,0,0,0,0,0,17:55:00,0,0
853000080,Dunfanaghy,55.18325504,-7.971691299,Dunfanaghy,County_Donegal,0,0,0,0,0,0,0,0,0,0,0,0,0,0,0,0,0,0,0,0,0,0,0,0,0,0,0,0,0,0,0,0,0,0,0,0,0,0,0,0,0,0,18:05:00,0,0
853000378,Public Phone Box,55.13638738,-8.105041321,An Fál Carrach,County_Donegal,0,0,0,0,0,0,0,0,0,0,0,0,0,0,0,0,0,0,0,0,0,0,0,0,0,0,0,0,0,0,0,0,0,0,0,0,0,0,0,0,0,0,18:20:00,0,0
8530PB000300,Gortahork,55.12152693,-8.133126276,Gort An Choirce,County_Donegal,0,0,0,0,0,0,0,0,0,0,0,0,0,0,0,0,0,0,0,0,0,0,0,0,0,0,0,0,0,0,0,0,0,0,0,0,0,0,0,0,0,0,18:25:00,0,0
853000379,Mollys Supermarket,55.07877753,-8.289631079,An Bun Beag-Doirí Beaga,County_Donegal,0,0,0,0,0,0,0,0,0,0,0,0,0,0,0,0,0,0,0,0,0,0,0,0,0,0,0,0,0,0,0,0,0,0,0,0,0,0,0,0,0,0,18:45:00,0,0
853000380,Bunbeg Crossroads,55.061177,-8.300805561,An Bun Beag-Doirí Beaga,County_Donegal,0,0,0,0,0,0,0,0,0,0,0,0,0,0,0,0,0,0,0,0,0,0,0,0,0,0,0,0,0,0,0,0,0,0,0,0,0,0,0,0,0,0,18:47:00,0,0
853000116,Crolly,55.02381756,-8.26296189,N56,County_Donegal,0,0,0,0,0,0,0,0,0,0,0,0,0,0,0,0,0,0,0,0,0,0,0,0,0,0,0,0,0,0,0,0,0,0,0,0,0,0,0,0,0,0,19:00:00,0,0
8490B5530801,Knock Airport,53.91406566,-8.81263954,Knock Airport,County_Mayo,0,0,0,0,0,0,0,0,0,0,0,0,0,0,0,0,0,0,0,0,0,0,0,0,0,0,0,0,0,0,0,0,0,0,0,0,0,0,0,0,0,0,0,14:40:00,0
8490B141641,Market Square,53.96396871,-8.794865239,Charlestown-Bellahy,County_Mayo,0,0,0,0,0,0,0,0,0,0,0,0,0,0,0,0,0,0,0,0,0,0,0,0,0,0,0,0,0,0,0,0,0,0,0,0,0,0,0,0,0,0,0,14:50:00,0
8490B5530801,Knock Airport,53.91406566,-8.81263954,Knock Airport,County_Mayo,0,0,0,0,0,0,0,0,0,0,0,0,0,0,0,0,0,0,0,0,0,0,0,0,0,0,0,0,0,0,0,0,0,0,0,0,0,0,0,0,0,0,0,15:00:00,0
846000192,Galway Cathedral,53.27527019,-9.058258628,Galway city and suburbs,County_Galway,0,0,0,0,0,0,0,0,0,0,0,0,0,0,0,0,0,0,0,0,0,0,0,0,0,0,0,0,0,0,0,0,0,0,0,0,0,0,0,0,0,0,0,0,15:00:00
847000118,Level Crossing,53.51396854,-8.856816613,Tuam,County_Galway,0,0,0,0,0,0,0,0,0,0,0,0,0,0,0,0,0,0,0,0,0,0,0,0,0,0,0,0,0,0,0,0,0,0,0,0,0,0,0,0,0,0,0,0,15:25:00
849000355,The Square,53.71981748,-8.998796407,Claremorris,County_Mayo,0,0,0,0,0,0,0,0,0,0,0,0,0,0,0,0,0,0,0,0,0,0,0,0,0,0,0,0,0,0,0,0,0,0,0,0,0,0,0,0,0,0,0,0,15:50:00
849000298,Lennons Cafe,53.79548976,-8.918462017,Knock,County_Mayo,0,0,0,0,0,0,0,0,0,0,0,0,0,0,0,0,0,0,0,0,0,0,0,0,0,0,0,0,0,0,0,0,0,0,0,0,0,0,0,0,0,0,0,0,16:00:00
849000073,Sligo Road,53.96497101,-8.795493907,Charlestown-Bellahy,County_Mayo,0,0,0,0,0,0,0,0,0,0,0,0,0,0,0,0,0,0,0,0,0,0,0,0,0,0,0,0,0,0,0,0,0,0,0,0,0,0,0,0,0,0,0,0,16:20:00
851000082,Circular Road,54.05228823,-8.73501987,Tubbercurry,County_Sligo,0,0,0,0,0,0,0,0,0,0,0,0,0,0,0,0,0,0,0,0,0,0,0,0,0,0,0,0,0,0,0,0,0,0,0,0,0,0,0,0,0,0,0,0,16:30:00
8510PB002825,Ballinacarrow,54.13407301,-8.560833001,Ballinacarrow,County_Sligo,0,0,0,0,0,0,0,0,0,0,0,0,0,0,0,0,0,0,0,0,0,0,0,0,0,0,0,0,0,0,0,0,0,0,0,0,0,0,0,0,0,0,0,0,16:40:00
851000016,Hawthorn Court,54.18198753,-8.48591071,Collooney,County_Sligo,0,0,0,0,0,0,0,0,0,0,0,0,0,0,0,0,0,0,0,0,0,0,0,0,0,0,0,0,0,0,0,0,0,0,0,0,0,0,0,0,0,0,0,0,16:45:00
851000001,Markievicz Road,54.27279054,-8.473989627,Sligo,County_Sligo,0,0,0,0,0,0,0,0,0,0,0,0,0,0,0,0,0,0,0,0,0,0,0,0,0,0,0,0,0,0,0,0,0,0,0,0,0,0,0,0,0,0,0,0,17:15:00
851000008,Grange,54.393146,-8.523263,Grange,County_Sligo,0,0,0,0,0,0,0,0,0,0,0,0,0,0,0,0,0,0,0,0,0,0,0,0,0,0,0,0,0,0,0,0,0,0,0,0,0,0,0,0,0,0,0,0,17:25:00
853000100,Bundoran Centre,54.47789538,-8.280247146,Bundoran,County_Donegal,0,0,0,0,0,0,0,0,0,0,0,0,0,0,0,0,0,0,0,0,0,0,0,0,0,0,0,0,0,0,0,0,0,0,0,0,0,0,0,0,0,0,0,0,17:40:00
853000115,Ballyshannon,54.500992,-8.189952,Ballyshannon,County_Donegal,0,0,0,0,0,0,0,0,0,0,0,0,0,0,0,0,0,0,0,0,0,0,0,0,0,0,0,0,0,0,0,0,0,0,0,0,0,0,0,0,0,0,0,0,17:45:00
853000377,Opposite Garda Station,54.65267752,-8.111336492,Donegal,County_Donegal,0,0,0,0,0,0,0,0,0,0,0,0,0,0,0,0,0,0,0,0,0,0,0,0,0,0,0,0,0,0,0,0,0,0,0,0,0,0,0,0,0,0,0,0,18:05:00
853000076,Ballybofey,54.800148,-7.778756,Ballybofey-Stranorlar,County_Donegal,0,0,0,0,0,0,0,0,0,0,0,0,0,0,0,0,0,0,0,0,0,0,0,0,0,0,0,0,0,0,0,0,0,0,0,0,0,0,0,0,0,0,0,0,18:30:00
8530LL10831,Letterkenny Bus Station,54.95414234,-7.728641489,Letterkenny,County_Donegal,0,0,0,0,0,0,0,0,0,0,0,0,0,0,0,0,0,0,0,0,0,0,0,0,0,0,0,0,0,0,0,0,0,0,0,0,0,0,0,0,0,0,0,0,18:50:00
853000087,Kilmacrennan PO,55.02965903,-7.778463717,Kilmacrennan,County_Donegal,0,0,0,0,0,0,0,0,0,0,0,0,0,0,0,0,0,0,0,0,0,0,0,0,0,0,0,0,0,0,0,0,0,0,0,0,0,0,0,0,0,0,0,0,19:00:00
853000083,Creeslough,55.12118559,-7.905407798,Creeslough,County_Donegal,0,0,0,0,0,0,0,0,0,0,0,0,0,0,0,0,0,0,0,0,0,0,0,0,0,0,0,0,0,0,0,0,0,0,0,0,0,0,0,0,0,0,0,0,19:15:00
853000080,Dunfanaghy,55.18325504,-7.971691299,Dunfanaghy,County_Donegal,0,0,0,0,0,0,0,0,0,0,0,0,0,0,0,0,0,0,0,0,0,0,0,0,0,0,0,0,0,0,0,0,0,0,0,0,0,0,0,0,0,0,0,0,19:25:00
853000378,Public Phone Box,55.13638738,-8.105041321,An Fál Carrach,County_Donegal,0,0,0,0,0,0,0,0,0,0,0,0,0,0,0,0,0,0,0,0,0,0,0,0,0,0,0,0,0,0,0,0,0,0,0,0,0,0,0,0,0,0,0,0,19:40:00
8530PB000300,Gortahork,55.12152693,-8.133126276,Gort An Choirce,County_Donegal,0,0,0,0,0,0,0,0,0,0,0,0,0,0,0,0,0,0,0,0,0,0,0,0,0,0,0,0,0,0,0,0,0,0,0,0,0,0,0,0,0,0,0,0,19:45:00
853000379,Mollys Supermarket,55.07877753,-8.289631079,An Bun Beag-Doirí Beaga,County_Donegal,0,0,0,0,0,0,0,0,0,0,0,0,0,0,0,0,0,0,0,0,0,0,0,0,0,0,0,0,0,0,0,0,0,0,0,0,0,0,0,0,0,0,0,0,20:05:00
853000380,Bunbeg Crossroads,55.061177,-8.300805561,An Bun Beag-Doirí Beaga,County_Donegal,0,0,0,0,0,0,0,0,0,0,0,0,0,0,0,0,0,0,0,0,0,0,0,0,0,0,0,0,0,0,0,0,0,0,0,0,0,0,0,0,0,0,0,0,20:07:00
853000116,Crolly,55.02381756,-8.26296189,N56,County_Donegal,0,0,0,0,0,0,0,0,0,0,0,0,0,0,0,0,0,0,0,0,0,0,0,0,0,0,0,0,0,0,0,0,0,0,0,0,0,0,0,0,0,0,0,0,20:15:00
